organisationId,organisationName,billingStreet,billingCity,billingStateProvince,billingZipPostalCode,formattedAddress,latitude,longitude
0017F00001UEIKZ,,"885 Mountain Highway,",Bayswater,VIC,3153,"885 Mountain Highway, Bayswater, VIC, 3153",-37.8377841,145.2801042
0017F00001UEJZY,,5 Caribbean Drive,Scoresby,VIC,3179,"5 Caribbean Drive, Scoresby, VIC, 3179",-37.9032705,145.2250428
0019S000003X15K,,4 Kings Road,New Lambton,NSW,2305,"4 Kings Road, New Lambton, NSW, 2305",-32.9280217,151.7227659
0019S000005CL7E,,Bapaume Road,MooreBank,NSW,2170,"Bapaume Road, MooreBank, NSW, 2170",-33.9426571,150.923139
001ON00000DE6F9,,"220 Sutton St,",Delacombe,VIC,3356,"220 Sutton St, Delacombe, VIC, 3356",-37.5744488,143.8279784
001ON00000JFASS,,"96-106 Grand Trunkway,",Gillman,SA,5013,"96-106 Grand Trunkway, Gillman, SA, 5013",-34.8256875,138.5203579
001ON00000OCSRR,,"321 Learmonth Rd,",Mitchell Park,VIC,3355,"321 Learmonth Rd, Mitchell Park, VIC, 3355",-37.5238985,143.8079387
001ON000008GDBI,,"6/176 Colchester Rd,",Bayswater North,VIC,3153,"6/176 Colchester Rd, Bayswater North, VIC, 3153",-37.8209487,145.3043785
001ON00000F57EP,,1/1 Civic Avenue,Singleton,NSW,2330,"1/1 Civic Avenue, Singleton, NSW, 2330",-32.5580123,151.177767
001ON00000OCSSK,,"1 Lucca Rd,",Wyong,NSW,2259,"1 Lucca Rd, Wyong, NSW, 2259",-33.2631319,151.4432786
001ON00000OCSSL,,"Factory 2/63-71 Bayfield Rd E,",Bayswater North,VIC,3153,"Factory 2/63-71 Bayfield Rd E, Bayswater North, VIC, 3153",-37.8231956,145.2778411
001ON00000OCSSM,,"171 Derrimut Dr,",Derrimut,VIC,3026,"171 Derrimut Dr, Derrimut, VIC, 3026",-37.8062356,144.7537739
001ON0000021DQB,,4 Industrial Court,Irymple,VIC,3498,"4 Industrial Court, Irymple, VIC, 3498",-34.235869,142.1661131
001ON00000OCSSA,,"Level 25, 177 Pacific Highway,",North Sydney,NSW,2060,"Level 25, 177 Pacific Highway, North Sydney, NSW, 2060",-33.83708645,151.20623383318906
001ON00000OCSSB,,16 Nautical Drive,Henderson,WA,6166,"16 Nautical Drive, Henderson, WA, 6166",-32.1628245,115.7727113
001ON00000OCSSC,,"Level 5/1 Adelaide Terrace,",East Perth,WA,6004,"Level 5/1 Adelaide Terrace, East Perth, WA, 6004",-31.9610965,115.875889
001ON00000OCSSD,,"Level 2 - 4, 179 Grey St,",South Bank,QLD,4104,"Level 2 - 4, 179 Grey St, South Bank, QLD, 4104",-27.4796938,153.0219401
001ON00000OCSRH,,"Level 2, 1110 Hay Street,",West Perth,WA,6005,"Level 2, 1110 Hay Street, West Perth, WA, 6005",-31.9511974,115.8429926
001ON00000OCSRP,,"67 Randle Rd,",Pinkenba,QLD,4008,"67 Randle Rd, Pinkenba, QLD, 4008",-27.4206576,153.1195491
001ON00000OCSS2,,"27 Kalinya Close,",Cameron Park,NSW,2285,"27 Kalinya Close, Cameron Park, NSW, 2285",-32.8941022,151.6003646
001ON00000OCSS7,,"Level 1, 40 Oxley Street,",St Leonards,NSW,2065,"Level 1, 40 Oxley Street, St Leonards, NSW, 2065",46.23323367727273,-60.091236995454544
001ON00000OCSS4,,"Level 29, 2 Chifley Square,",Sydney,NSW,2000,"Level 29, 2 Chifley Square, Sydney, NSW, 2000",,
0019S000006PATP,,"13 Hawkins Cresent,",Bundama,QLD,4304,"13 Hawkins Cresent, Bundama, QLD, 4304",,
001ON00000JFSRF,,10-14  Shipwright Road,Largs North,SA,5016,"10-14  Shipwright Road, Largs North, SA, 5016",-34.8189884,138.5083588
001ON00000OCSRI,,"1 Marden Street,",Artarmon,NSW,2064,"1 Marden Street, Artarmon, NSW, 2064",-33.8136946,151.1794514
001ON00000IM8VM,,"Level 26, 44 Market Street,",Sydney,NSW,2000,"Level 26, 44 Market Street, Sydney, NSW, 2000",,
001ON00000OCSRY,,"7 Dougall Street,",Byford,WA,6122,"7 Dougall Street, Byford, WA, 6122",-32.2277677,116.0101874
001ON00000OCSRZ,,"37 Colemans Rd,",Carrum Downs,VIC,3201,"37 Colemans Rd, Carrum Downs, VIC, 3201",-38.0919024,145.166053
001ON00000OCSS0,,"63-65 Maffra Street,",Coolaroo,VIC,3048,"63-65 Maffra Street, Coolaroo, VIC, 3048",-37.6592264,144.9400834
001ON00000OCSS1,,"24 Smallwood Street,",Underwood,QLD,4119,"24 Smallwood Street, Underwood, QLD, 4119",-27.6076553,153.1131931
001ON00000OCSRV,,"51 Union Road,",Carmel,WA,6076,"51 Union Road, Carmel, WA, 6076",-32.0210962,116.1001776
001ON00000OCSRW,,"98-102 Wetherill Street North,",Silverwater,NSW,2128,"98-102 Wetherill Street North, Silverwater, NSW, 2128",-33.8375376,151.0495793
001ON00000OCSRX,,"849 Wellington Street,",West Perth,WA,6005,"849 Wellington Street, West Perth, WA, 6005",-31.94571,115.8409479
001ON00000ALTJY,,3 Alice Street,BASSENDEAN,WA,6054,"3 Alice Street, BASSENDEAN, WA, 6054",-31.9080357,115.931174
001ON00000OCSRO,,"Suite 201, Level 2, Small Tower, 63 Parramatta Rd,",Silverwater,NSW,2128,"Suite 201, Level 2, Small Tower, 63 Parramatta Rd, Silverwater, NSW, 2128",,
001ON00000OCSRJ,,"29/180 Ann St,",Brisbane City,QLD,4000,"29/180 Ann St, Brisbane City, QLD, 4000",-27.4661611,153.026302
001ON00000OCSRK,,"11 Commercial Road,",Notting Hill,VIC,3168,"11 Commercial Road, Notting Hill, VIC, 3168",-37.9036355,145.1297846
001ON00000BEX5Q,,"7/10 Denoci Cl,",Wetherill Park,NSW,2164,"7/10 Denoci Cl, Wetherill Park, NSW, 2164",-33.8398148,150.9006422
001ON00000OCSRN,,"862 Cockburn Road,",Henderson,WA,6166,"862 Cockburn Road, Henderson, WA, 6166",-32.1434033,115.7684737
001ON0000029W7I,,"1608 Hume Hwy,",Campbellfield,VIC,3061,"1608 Hume Hwy, Campbellfield, VIC, 3061",-37.6813785,144.957575
001ON00000OCSRG,,"1 Caterpillar Dr,",Tullamarine,VIC,3024,"1 Caterpillar Dr, Tullamarine, VIC, 3024",-37.7091386,144.8860517
001ON00000OCSRB,,"19 Reid Road,",Perth International Airport,WA,6105,"19 Reid Road, Perth International Airport, WA, 6105",,
001ON00000OCSRC,,"Rm 215 Coronation Drive,",Milton,QLD,4064,"Rm 215 Coronation Drive, Milton, QLD, 4064",,
001ON000001XA9W,,"1 Dr. Willi Liebherr Drive,",Para Hills West,SA,5096,"1 Dr. Willi Liebherr Drive, Para Hills West, SA, 5096",,
001ON00000OCSRD,,"100 Chisholm Crescent,",Kewdale,WA,6105,"100 Chisholm Crescent, Kewdale, WA, 6105",-31.9896057,115.9807914
001ON00000OCSRE,,"17 Export Drive,",Pakenham,VIC,3810,"17 Export Drive, Pakenham, VIC, 3810",-38.0937053,145.481577
001ON00000OCSRF,,0,ACACIA RIDGE,QLD,7320,"0, ACACIA RIDGE, QLD, 7320",-27.5857312,153.025206
001ON00000OCSRA,,0,Annerly,QLD,6105,"0, Annerly, QLD, 6105",,
001ON00000OCSRL,,"29 Glastonbury Ave,",Unanderra,NSW,2526,"29 Glastonbury Ave, Unanderra, NSW, 2526",-34.4567033,150.8586457
001ON00000OCSRM,,"39 Quindus St,",Wacol,QLD,4076,"39 Quindus St, Wacol, QLD, 4076",-27.6059132,152.9284704
0017F00001UEIVK,,3 Meyer Road,Lonsdale,SA,5160,"3 Meyer Road, Lonsdale, SA, 5160",-35.0996281,138.4924694
0017F00001UEIVO,,7 Factories Road,South Geelong,VIC,3220,"7 Factories Road, South Geelong, VIC, 3220",-38.1684276,144.3614114
0017F00001UEIW3,,34 Airds Road,Minto,NSW,2566,"34 Airds Road, Minto, NSW, 2566",-34.0291232,150.8397795
001ON000002JKO5,,"10-14 Gilbertson Road,",Laverton North,VIC,3026,"10-14 Gilbertson Road, Laverton North, VIC, 3026",-37.8216837,144.7915192
001ON0000074VH8,,7-29 Gladstone Road,Dandenong,VIC,3175,"7-29 Gladstone Road, Dandenong, VIC, 3175",-37.9728129,145.2045325
001ON00000JFZVU,,"45 Brunel Rd,",Seaford,VIC,3198,"45 Brunel Rd, Seaford, VIC, 3198",-38.1009652,145.1450622
001ON00000JFAOT,,"43-55 Mark Anthony Drive,",Dandenong South,VIC,3175,"43-55 Mark Anthony Drive, Dandenong South, VIC, 3175",-38.0339407,145.1948168
001ON00000JFAVG,,"1/43 Industrial Ave,",Hoppers Crossing,VIC,2029,"1/43 Industrial Ave, Hoppers Crossing, VIC, 2029",-37.8682166,144.7323424
001ON00000AS8ZF,,165–169 Lower Gibbes Street,Chatswood,NSW,2067,"165–169 Lower Gibbes Street, Chatswood, NSW, 2067",-33.7855311,151.1982638
001ON00000IQ7D2,,"14 Prince-Patrick Street,",Richmond,VIC,3121,"14 Prince-Patrick Street, Richmond, VIC, 3121",-37.8325528,144.9976873
0012T0000034LZU,,203/25 Gipps,Collingwood,VIC,3066,"203/25 Gipps, Collingwood, VIC, 3066",-37.8049209,144.9914666
0012T0000034U6X,,12 Jamieson St,Bowen Hills,QLD,4006,"12 Jamieson St, Bowen Hills, QLD, 4006",-27.4472081,153.0373123
0012T0000034NCJ,,32a Vestan Drive,Morwell,VIC,3840,"32a Vestan Drive, Morwell, VIC, 3840",-38.2345679,146.4349516
0012T0000034WXN,,5 Harker Street,Burwood,VIC,3125,"5 Harker Street, Burwood, VIC, 3125",-37.8536765,145.1035558
0012T00000360LU,,"Level 1, 187 Todd Road",Port Melbourne,VIC,3207,"Level 1, 187 Todd Road, Port Melbourne, VIC, 3207",-37.8256721,144.921852
0012T0000036QG3,,"1-13 Shierlaw Avenue, Canterbury",Melbourne,VIC,3126,"1-13 Shierlaw Avenue, Canterbury, Melbourne, VIC, 3126",-37.8237645,145.0821029
0015K000004G2JZ,,"Unit 2/3, 47 Wangara Road",Cheltenham,VIC,3192,"Unit 2/3, 47 Wangara Road, Cheltenham, VIC, 3192",-37.9697342,145.0656953
0017F000023LWBX,,191-193 Northcorp Boulevard,Broadmeadows,VIC,3047,"191-193 Northcorp Boulevard, Broadmeadows, VIC, 3047",-37.6782347,144.9422242
0017F000023LY3S,,16-18 Ceylon st,Nunawading,VIC,3133,"16-18 Ceylon st, Nunawading, VIC, 3133",-37.8197906,145.1652613
0017F000023LXID,,Factory 3,Somerville,VIC,3912,"Factory 3, Somerville, VIC, 3912",-38.2254039,145.1736692
0019S0000045HGJ,,171 Briens Road,Northmead,NSW,2152,"171 Briens Road, Northmead, NSW, 2152",-33.7966395,150.9866405
0019S000005FD0C,,90 Melrose Street,North Melbourne,VIC,3051,"90 Melrose Street, North Melbourne, VIC, 3051",-37.7920055,144.942521
0019S000005J2KP,,1/24 Bluestone Circuit,Seventeen Mile Rocks,Qld,4073,"1/24 Bluestone Circuit, Seventeen Mile Rocks, Qld, 4073",-27.5554497,152.9493473
0019S000005OLMY,,"Unit 11, 29 Bay Road,",Taren Point,NSW,2229,"Unit 11, 29 Bay Road, Taren Point, NSW, 2229",40.8446521,-73.7103091
0019S0000061JUZ,,"L35, 477 Collins Street",Melbourne,VIC,3000,"L35, 477 Collins Street, Melbourne, VIC, 3000",-37.8077969,144.9599216
0019S000006US88,,338 Victoria Road,Rydalmere,NSW,2116,"338 Victoria Road, Rydalmere, NSW, 2116",-33.80995,151.038093
0019S000007HUTW,,53A Princes Drive,Morwell,VIC,3840,"53A Princes Drive, Morwell, VIC, 3840",-38.233612,146.4365468
001ON000002FTT7,,150-152 Euston Road,Alexandria,NSW,2015,"150-152 Euston Road, Alexandria, NSW, 2015",-33.9060181,151.1919327
001ON000002VXQM,,8/7-11 Parraweena Road,Caringbah,NSW,2229,"8/7-11 Parraweena Road, Caringbah, NSW, 2229",-34.0264614,151.1298275
001ON000003CUIM,,2/1 Bromham Place,Richmond,VIC,3121,"2/1 Bromham Place, Richmond, VIC, 3121",-37.8143581,144.9981819
001ON000003GQVQ,,6 Brex Court,Reservoir,VIC,3073,"6 Brex Court, Reservoir, VIC, 3073",-37.708782,144.9809406
001ON000003GWHK,,22-26 Armstrong Road,Heathmont,VIC,3135,"22-26 Armstrong Road, Heathmont, VIC, 3135",-37.8302108,145.2558832
001ON000003RZOU,,"145-149 Woodlands Drive,",Braeside,VIC,3195,"145-149 Woodlands Drive, Braeside, VIC, 3195",-37.9991336,145.1204677
001ON000004X7NX,,230-236 Captain Cook Drive,Kurnell,NSW,2231,"230-236 Captain Cook Drive, Kurnell, NSW, 2231",-34.0228091,151.2020463
001ON000006A8LX,,3 Kia Cresent,Preston,VIC,3072,"3 Kia Cresent, Preston, VIC, 3072",-37.7418658,145.0078205
001ON000006OPRE,,"12 Stacey Street,",Bankstown,NSW,2200,"12 Stacey Street, Bankstown, NSW, 2200",-33.9072852,151.040247
001ON000006P2Y5,,40-46 Western Avenue,Westmeadows,VIC,3049,"40-46 Western Avenue, Westmeadows, VIC, 3049",-37.6836858,144.8785314
001ON000006P4WG,,14 Halley Crescent,Campbellfield,VIC,3061,"14 Halley Crescent, Campbellfield, VIC, 3061",-37.6487205,144.9482449
001ON000006P8BI,,126-128 Bamfield Road,Heidelberg West,VIC,3081,"126-128 Bamfield Road, Heidelberg West, VIC, 3081",-37.7335879,145.0570846
001ON000006P99V,,195-197 Grange Road,Fairfield,VIC,3078,"195-197 Grange Road, Fairfield, VIC, 3078",-37.7674541,145.0269982
001ON000007HKJD,,6 Elm Park Drive,Hoppers Crossing,VIC,3029,"6 Elm Park Drive, Hoppers Crossing, VIC, 3029",-37.8716468,144.7199038
001ON00000BY8EI,,"5 Dexter Drive,",Epping,VIC,3076,"5 Dexter Drive, Epping, VIC, 3076",-37.6365997,144.9987566
001ON00000CH364,,13B Ceylon Street,Nunawading,VIC,3131,"13B Ceylon Street, Nunawading, VIC, 3131",-37.8197087,145.1656483
001ON00000COBLB,,"Unit 2, 68-72 Asquith Avenue",Silverwater,NSW,2128,"Unit 2, 68-72 Asquith Avenue, Silverwater, NSW, 2128",-33.8372,151.038055
001ON00000H2HZ6,,88 Gormanston Road,Moonah,TAS,7009,"88 Gormanston Road, Moonah, TAS, 7009",-42.840494,147.2979893
001ON00000JFSQQ,,"1/1265 Main North Road,",Para Hills West,SA,5096,"1/1265 Main North Road, Para Hills West, SA, 5096",-34.7957272,138.6435719
001ON00000JFZP9,,"101F Cardigan Road,",Mooroolbark,VIC,3138,"101F Cardigan Road, Mooroolbark, VIC, 3138",-37.7888375,145.3282218
001ON00000JFZPC,,"Unit 3, 90 Aumuller Street,",Portsmith,QLD,4870,"Unit 3, 90 Aumuller Street, Portsmith, QLD, 4870",,
001ON00000JFZQD,,"12/51-59 Hudsons Road,",Spotswood,VIC,3015,"12/51-59 Hudsons Road, Spotswood, VIC, 3015",-37.8306798,144.8879219
001ON00000JFZQV,,"195 Abbotts Road,",Dandenong South,VIC,3175,"195 Abbotts Road, Dandenong South, VIC, 3175",-38.0340916,145.233178
001ON00000JFZRI,,Unit 3/100 Fulton Drive,Derrimut,VIC,3025,"Unit 3/100 Fulton Drive, Derrimut, VIC, 3025",-37.808661,144.7757609
001ON00000JFZVB,,"380 City Road,",Southbank,VIC,3006,"380 City Road, Southbank, VIC, 3006",-37.8288494,144.9563258
001ON00000JFZVH,,"4 Scholar Drive,",Bundoora,VIC,3083,"4 Scholar Drive, Bundoora, VIC, 3083",-37.6855675,145.0725986
001ON00000JFZWN,,"13 Chaffey Street,",Thomastown,VIC,3074,"13 Chaffey Street, Thomastown, VIC, 3074",-37.6895159,145.0051992
001ON00000JFZX6,,"30 Somerton Park Drive,",Campbellfield,VIC,3061,"30 Somerton Park Drive, Campbellfield, VIC, 3061",-37.6476342,144.945742
001ON00000JFZXC,,"15-17 Kirkdale Street,",Brunswick East,VIC,3057,"15-17 Kirkdale Street, Brunswick East, VIC, 3057",-37.769862,144.9815081
001ON00000JFZXX,,"Building 8, Pacifica Business Park,",Kilsyth,VIC,3137,"Building 8, Pacifica Business Park, Kilsyth, VIC, 3137",,
001ON00000JFA1G,,"4-6 Lincoln Street,",Brunswick East,VIC,3057,"4-6 Lincoln Street, Brunswick East, VIC, 3057",-37.7585272,144.9777333
001ON00000JFA28,,"Warehouse 1, 2 The Gateway,",Broadmeadows,VIC,3047,"Warehouse 1, 2 The Gateway, Broadmeadows, VIC, 3047",-37.6895199,144.9512152
001ON00000JFA31,,0,Daylesford,VIC,3460,"0, Daylesford, VIC, 3460",-37.3414775,144.1465866
001ON00000JFA38,,9 Philip Cresent,Port Melbourne,VIC,3207,"9 Philip Cresent, Port Melbourne, VIC, 3207",-37.8333613,144.9219203
001ON00000JFA3P,,"295-317 St Albans Road,",Sunshine,VIC,3020,"295-317 St Albans Road, Sunshine, VIC, 3020",-37.7719851,144.8215253
001ON00000JFA9A,,"49 Lakeside Drive,",Broadmeadows,VIC,3047,"49 Lakeside Drive, Broadmeadows, VIC, 3047",-37.6858116,144.9474932
001ON00000JFA9T,,"62 Bardia Avenue,",Seaford,VIC,3198,"62 Bardia Avenue, Seaford, VIC, 3198",-38.1158712,145.1343079
001ON00000JFAEH,,"20 Burlington Street,",Oakleigh,VIC,3166,"20 Burlington Street, Oakleigh, VIC, 3166",-37.9020884,145.0933022
001ON00000JFAEK,,"22 longstaff Road,",Bayswater,VIC,3153,"22 longstaff Road, Bayswater, VIC, 3153",-37.8354791,145.2841125
001ON00000JFAEP,,"Unit 2/161 Settlement Road,",Thomastown,VIC,3074,"Unit 2/161 Settlement Road, Thomastown, VIC, 3074",-37.6947982,145.0406465
001ON00000JFAEG,,"Fairfield, Kosciusko Road,",Berridale,NSW,2628,"Fairfield, Kosciusko Road, Berridale, NSW, 2628",,
001ON00000JFAGQ,,"Murphy Street,",Bendigo East,VIC,3550,"Murphy Street, Bendigo East, VIC, 3550",-36.7433969,144.3059647
001ON00000JFAMU,,0,Blackburn,VIC,3030,"0, Blackburn, VIC, 3030",-37.8217009,145.152276
001ON00000JFAST,,"14 Waratah St,",Tumut,NSW,2720,"14 Waratah St, Tumut, NSW, 2720",-35.2998578,148.2056411
001ON00000JFATT,,"10 Pearl Street,",Brooklyn,VIC,3012,"10 Pearl Street, Brooklyn, VIC, 3012",-37.8231058,144.8327342
001ON00000JFAV5,,7 Enterprise Court,Mulgrave,VIC,3170,"7 Enterprise Court, Mulgrave, VIC, 3170",-37.9209624,145.1624648
001ON00000JFAZJ,,0,Brunswick East,VIC,3057,"0, Brunswick East, VIC, 3057",-37.7688802,144.9776825
001ON00000JFABD,,"15 Morgan Street,",Gladstone,QLD,4680,"15 Morgan Street, Gladstone, QLD, 4680",-23.8386997,151.2460532
001ON00000OCSMP,,300 Chesterville Road,Moorabbin,VIC,3189,"300 Chesterville Road, Moorabbin, VIC, 3189",-37.9379508,145.0612092
001ON00000OCSMS,,"1/32 Myola Street,",Patterson Lakes,VIC,3197,"1/32 Myola Street, Patterson Lakes, VIC, 3197",-38.0766645,145.1351081
001ON00000OCSMV,,"Unit 1/9 Christensen Road,",Stapylton,QLD,4207,"Unit 1/9 Christensen Road, Stapylton, QLD, 4207",-27.7494067,153.2514207
001ON00000OCSMY,,0,Ellenbrook,WA,6069,"0, Ellenbrook, WA, 6069",-31.782739,115.9665616
001ON00000OCSMA,,"9 Help Street,",Chatswood,NSW,2067,"9 Help Street, Chatswood, NSW, 2067",-33.7954031,151.1794567
001ON00000OCSMB,,"13 Hinkler Crescent,",Fannie Bay,NT,820,"13 Hinkler Crescent, Fannie Bay, NT, 820",-12.421177,130.8361721
001ON00000OCSMC,,"Main Office,",Box Hill,NSW,2765,"Main Office, Box Hill, NSW, 2765",-33.6425,150.8988889
001ON00000OCSMD,,"Unit 1, 30 Smith Street,",Darwin City,NT,800,"Unit 1, 30 Smith Street, Darwin City, NT, 800",43.3202347,-73.65203
001ON00000OCSME,,"7 Margaret Street,",Mount Gambier,SA,5290,"7 Margaret Street, Mount Gambier, SA, 5290",-37.8319125,140.7756198
001ON00000OCSMH,,"315 Heads Road / Po Box 866,",Whanganui,NI,4501,"315 Heads Road / Po Box 866, Whanganui, NI, 4501",,
001ON00000OCSMM,,"3/200 Boundary Road,",Braeside,VIC,3195,"3/200 Boundary Road, Braeside, VIC, 3195",-37.9969927,145.1060583
001ON00000OCSMN,,"Po Box 149,",Hamilton,QLD,4007,"Po Box 149, Hamilton, QLD, 4007",-27.4360084,153.0728425
001ON00000OCSMQ,,"133 Bakers Road,",Coburg North,VIC,3058,"133 Bakers Road, Coburg North, VIC, 3058",-37.7264174,144.9534466
001ON00000OCSMR,,0,Brisbane,QLD,4012,"0, Brisbane, QLD, 4012",-27.4689623,153.0235009
001ON00000OCSMT,,"13/149 Fitzroy Street,",St Kilda,VIC,3182,"13/149 Fitzroy Street, St Kilda, VIC, 3182",-37.8588218,144.9790957
001ON00000OCSMU,,"1/241-243 Browns Road,",Noble Park North,VIC,3174,"1/241-243 Browns Road, Noble Park North, VIC, 3174",-37.952561,145.1812971
001ON00000OCSMW,,0,Byron Bay,NSW,2481,"0, Byron Bay, NSW, 2481",-28.6483333,153.6177778
001ON00000OCSMX,,0,Melbourne,VIC,3000,"0, Melbourne, VIC, 3000",-37.8142454,144.9631732
001ON00000OCSMZ,,"81 Myers St,",Geelong,VIC,3220,"81 Myers St, Geelong, VIC, 3220",-38.1508834,144.3579478
001ON00000OCSN0,,0,Melbourne,VIC,3141,"0, Melbourne, VIC, 3141",-37.8142454,144.9631732
001ON00000OCSN1,,0,Condell Park,NSW,2200,"0, Condell Park, NSW, 2200",-33.9227893,151.0113353
001ON00000OCSN2,,"11 Wheeler Street,",Ormond,VIC,3204,"11 Wheeler Street, Ormond, VIC, 3204",-37.9070708,145.0401611
001ON00000OCSN3,,"1 Mayston Street,",Hawthorn East,VIC,3123,"1 Mayston Street, Hawthorn East, VIC, 3123",-37.826377,145.0513001
001ON00000OCSN5,,"1B Alisa Street,",Box Hill South,VIC,3128,"1B Alisa Street, Box Hill South, VIC, 3128",-37.8319636,145.1216831
001ON00000OCSN6,,0,Sydney,NSW,2000,"0, Sydney, NSW, 2000",-33.9176183,151.2386635
001ON00000OCSN7,,"75 Mary Street Suite 5.01,",St Peters,NSW,2044,"75 Mary Street Suite 5.01, St Peters, NSW, 2044",,
001ON00000OCSN8,,0,Perth,WA,6000,"0, Perth, WA, 6000",-31.9558967,115.8605784
001ON00000OCSNA,,0,Brisbane,QLD,4000,"0, Brisbane, QLD, 4000",-27.4689623,153.0235009
001ON00000OCSNB,,0,Sydney,NSW,2000,"0, Sydney, NSW, 2000",-33.9176183,151.2386635
001ON00000OCSNC,,"Factory 2/10-12 Moreland Road,",Brunswick East,VIC,3057,"Factory 2/10-12 Moreland Road, Brunswick East, VIC, 3057",24.7983661,120.9921003
001ON00000OCSND,,"196-198 Johnston Street,",Collingwood,VIC,3066,"196-198 Johnston Street, Collingwood, VIC, 3066",-37.7993569,144.9881968
001ON00000OCSNE,,"Factory 1, 5 Macquarie Drive,",Thomastown,VIC,3074,"Factory 1, 5 Macquarie Drive, Thomastown, VIC, 3074",-37.6921308,145.0332512
001ON00000OCSNF,,0,Palmerston North,NI,0,"0, Palmerston North, NI, 0",-12.4799608,130.9844108
001ON00000OCSNG,,0,Brisbane,QLD,4014,"0, Brisbane, QLD, 4014",-27.4689623,153.0235009
001ON00000OCSNI,,0,Christchurch,NI,0,"0, Christchurch, NI, 0",53.1938958,8.763067618015844
001ON00000OCSNJ,,"1/118 Albert St,",Brunswick,VIC,3056,"1/118 Albert St, Brunswick, VIC, 3056",-37.7683753,144.9579654
001ON00000OCSNK,,"Shop 16 Annerley Arcade, 478 Ipswich Road,",Annerley,QLD,4103,"Shop 16 Annerley Arcade, 478 Ipswich Road, Annerley, QLD, 4103",,
001ON00000OCSNL,,"88 Highgate Street,",Bexley,NSW,2207,"88 Highgate Street, Bexley, NSW, 2207",-33.9478706,151.1236931
001ON00000OCSNM,,0,0,VIC,3500,"0, 0, VIC, 3500",43.137546885714286,-79.3921434
001ON00000OCSNN,,0,St Peters,NSW,2044,"0, St Peters, NSW, 2044",-33.9111235,151.1761345
001ON00000OCSNO,,"341–343 Canterbury Road,",Canterbury,NSW,2193,"341–343 Canterbury Road, Canterbury, NSW, 2193",-33.9149836,151.1117136
001ON00000OCSNP,,"Factory 3 8-9 Gabrielle Court,",Bayswater North,VIC,3153,"Factory 3 8-9 Gabrielle Court, Bayswater North, VIC, 3153",-37.8236678,145.2848587
001ON00000OCSNQ,,0,Yarra Valley,VIC,3782,"0, Yarra Valley, VIC, 3782",-37.7507627,145.3504835
001ON00000OCSNR,,"1/654 WateRoadale Road,",Heidelberg West,VIC,3081,"1/654 WateRoadale Road, Heidelberg West, VIC, 3081",-37.7294348,145.0501898
001ON00000OCSNS,,"4/64 Charter Street,",Ringwood,VIC,3134,"4/64 Charter Street, Ringwood, VIC, 3134",-37.8150784,145.2222745
001ON00000OCSNT,,"9 Hope Street,",Brunswick,VIC,3056,"9 Hope Street, Brunswick, VIC, 3056",-37.7642638,144.9612734
001ON00000OCSNU,,"3/7 Roxburgh Street,",Ascot Vale,VIC,3032,"3/7 Roxburgh Street, Ascot Vale, VIC, 3032",-37.7755571,144.9177906
001ON00000OCSNV,,"631 Centre Road,",Bentleigh East,VIC,3165,"631 Centre Road, Bentleigh East, VIC, 3165",-37.919958,145.0515635
001ON00000OCSNW,,"23 Auburn Avenue,",Northcote,VIC,3070,"23 Auburn Avenue, Northcote, VIC, 3070",-37.7690212,144.9885271
001ON00000OCSNX,,"76 Victoria Street,",Carlton,VIC,3053,"76 Victoria Street, Carlton, VIC, 3053",-37.8066843,144.9652713
001ON00000OCSNY,,0,Hindmarsh,SA,5007,"0, Hindmarsh, SA, 5007",-34.9066222,138.5699532
001ON00000OCSNZ,,0,WALLSEND,NSW,2287,"0, WALLSEND, NSW, 2287",-32.9057901,151.6656025
001ON00000OCSNH,,"20 Hilbert Road.,",Airport West,VIC,3042,"20 Hilbert Road., Airport West, VIC, 3042",-37.7225171,144.8723534
001ON00000OCSO0,,"9 Aliciajay Cct,",Brisbane,QLD,4207,"9 Aliciajay Cct, Brisbane, QLD, 4207",,
001ON00000OCSO1,,"70 Meeks Road,",Marrickville,NSW,2204,"70 Meeks Road, Marrickville, NSW, 2204",-33.9114654,151.1620003
001ON00000OCSO2,,0,Wandi,WA,6167,"0, Wandi, WA, 6167",-32.1943168,115.876973
001ON00000OCSO3,,"254 Warrandyte Road,",Langwarrin,VIC,3910,"254 Warrandyte Road, Langwarrin, VIC, 3910",-38.1751389,145.1894574
001ON00000OCSO4,,0,Melbourne,VIC,3000,"0, Melbourne, VIC, 3000",-37.8142454,144.9631732
001ON00000OCSO5,,"188 King St,",Newtown,NSW,2042,"188 King St, Newtown, NSW, 2042",-33.9062751,151.1812239
001ON00000OCSO6,,"Unit 25, 35 Paringa Road,",Murarrie,QLD,4172,"Unit 25, 35 Paringa Road, Murarrie, QLD, 4172",-27.4452071,153.108684
001ON00000OCSO7,,"6 Plateau Road,",Reservoir,VIC,3073,"6 Plateau Road, Reservoir, VIC, 3073",-37.7131112,144.9859769
001ON00000OCSO8,,"36 Trade Place,",Coburg,VIC,3058,"36 Trade Place, Coburg, VIC, 3058",-37.7240467,144.9711616
001ON00000OCSO9,,"172 Ring Road,",Ballarat,VIC,3355,"172 Ring Road, Ballarat, VIC, 3355",-37.5318486,143.8036419
001ON00000OCSOA,,"3 Jenkins Lane,",Langford,WA,6147,"3 Jenkins Lane, Langford, WA, 6147",-32.0357984,115.9375626
001ON00000OCSOB,,"48-52 Berkshire Road,",Sunshine North,VIC,3020,"48-52 Berkshire Road, Sunshine North, VIC, 3020",-37.7648876,144.8314493
001ON00000OCSOC,,"15-17 Kirkdale Street,",Brunswick East,VIC,3057,"15-17 Kirkdale Street, Brunswick East, VIC, 3057",-37.769862,144.9815081
001ON00000OCSOD,,0,Parkdale,VIC,3195,"0, Parkdale, VIC, 3195",-37.9918673,145.081286
001ON00000OCSOE,,"Grosvenor Street,",Abbotsford,VIC,3067,"Grosvenor Street, Abbotsford, VIC, 3067",-37.8081137,145.0068006
001ON00000OCSOF,,"9 / 27 Winnellie Rd Winnellie,",Winnellie,NT,821,"9 / 27 Winnellie Rd Winnellie, Winnellie, NT, 821",-12.4266742,130.8824064
001ON00000OCSOG,,"Vidler Court Landsborough,",Landsborough,QLD,4550,"Vidler Court Landsborough, Landsborough, QLD, 4550",-26.8005221,152.965465
001ON00000OCSOH,,"543 Keilor Road,",Niddrie,VIC,3042,"543 Keilor Road, Niddrie, VIC, 3042",-37.7342693,144.8836804
001ON00000OCSOI,,"17 Delview Drive Jan Juc,",Jan Juc,VIC,3228,"17 Delview Drive Jan Juc, Jan Juc, VIC, 3228",-38.3463946,144.2938557
001ON00000OCSOJ,,"22 Drysdale Street Ormeau,",Ormeau,QLD,4208,"22 Drysdale Street Ormeau, Ormeau, QLD, 4208",-27.7558293,153.2452869
001ON00000OCSOK,,"7 Germein Road,",Solomontown,SA,5540,"7 Germein Road, Solomontown, SA, 5540",-33.1839583,138.0267853
001ON00000OCSOL,,"38 Punari Street,",Garbutt,QLD,4814,"38 Punari Street, Garbutt, QLD, 4814",,
001ON00000OCSOM,,"Unit Level 1 Unit 5 70-74 Meakin Road,",Meadowbrook,QLD,4131,"Unit Level 1 Unit 5 70-74 Meakin Road, Meadowbrook, QLD, 4131",,
001ON00000OCSON,,"207-217 Mcdougall Street,",Toowoomba,QLD,4350,"207-217 Mcdougall Street, Toowoomba, QLD, 4350",-27.5606901,151.9072294
001ON00000OCSOO,,"Unit 3 55 Newheath Drive,",Arundel,QLD,4214,"Unit 3 55 Newheath Drive, Arundel, QLD, 4214",,
001ON00000OCSOP,,"1 Robertson St,",Toowoomba,QLD,4350,"1 Robertson St, Toowoomba, QLD, 4350",-27.5697075,151.9506223
001ON00000OCSOQ,,"22A Napoleon Street,",Collingwood,VIC,3066,"22A Napoleon Street, Collingwood, VIC, 3066",-37.8015474,144.9860057
001ON00000OCSQT,,0,Townsville,QLD,4810,"0, Townsville, QLD, 4810",-19.2569391,146.8239537
001ON00000OCSQU,,"6 Westpool Drive,",Hallam,VIC,3803,"6 Westpool Drive, Hallam, VIC, 3803",-38.0151971,145.2628588
001ON00000OCSQW,,0,Kilburn,SA,5084,"0, Kilburn, SA, 5084",-34.8596902,138.5855855
001ON00000OCSQX,,0,Mandurah,WA,6090,"0, Mandurah, WA, 6090",-32.2332214,115.7786349
001ON00000OCSQY,,0,Leumeah,NSW,3134,"0, Leumeah, NSW, 3134",-36.9435113,149.9088633
001ON00000OCSQZ,,"35 Oakenville St,",Nundle,NSW,2340,"35 Oakenville St, Nundle, NSW, 2340",-31.4603251,151.1260854
001ON00000OCSQA,,0,South Kempsey,NSW,2440,"0, South Kempsey, NSW, 2440",-31.1201,152.8492
001ON00000OCSQB,,"1/35 Nobby Parade,",Miami,QLD,4220,"1/35 Nobby Parade, Miami, QLD, 4220",-28.0730441,153.4413672
001ON00000OCSQC,,"Cooleman Court / Shop 55A,",Weston,ACT,2611,"Cooleman Court / Shop 55A, Weston, ACT, 2611",,
001ON00000OCSQD,,0,Keswick,SA,5035,"0, Keswick, SA, 5035",-34.9443902,138.5777753
001ON00000OCSQE,,"Unit 1, 2 Burrows Road,",St Peters,NSW,2044,"Unit 1, 2 Burrows Road, St Peters, NSW, 2044",45.64866345352652,-60.64419460656052
001ON00000OCSQG,,"7 Silverstar Street,",Pakenham,VIC,3809,"7 Silverstar Street, Pakenham, VIC, 3809",-38.0548804,145.4526667
001ON00000OCSQH,,"Collins St,",Melbourne,VIC,3000,"Collins St, Melbourne, VIC, 3000",-37.8180421,144.9575091
001ON00000OCSQI,,0,0,0,6073,"0, 0, 0, 6073",43.20847353198317,-82.01255239949614
001ON00000OCSQJ,,"262 Dundas Street,",Thornbury,VIC,3083,"262 Dundas Street, Thornbury, VIC, 3083",-37.7546187,145.0223168
001ON00000OCSQK,,"115 Rundle Street,",Kent Town South,SA,5067,"115 Rundle Street, Kent Town South, SA, 5067",-34.9184032,138.62242
001ON00000OCSQL,,"Unit 4, 64 Chelmsford Street,",Newtown,NSW,2042,"Unit 4, 64 Chelmsford Street, Newtown, NSW, 2042",,
001ON00000OCSQM,,"40 Hargreaves Street,",Huntingdale,VIC,3166,"40 Hargreaves Street, Huntingdale, VIC, 3166",-37.9092108,145.1082108
001ON00000OCSQN,,0,Hornsby,NSW,2077,"0, Hornsby, NSW, 2077",-33.7040253,151.1005847
001ON00000OCSQP,,0,York,WA,6302,"0, York, WA, 6302",-31.8889034,116.7691483
001ON00000OCSQQ,,0,Hervey Bay,Qld,4655,"0, Hervey Bay, Qld, 4655",-25.2985784,152.8535216
001ON00000OCSQR,,"45 Waverley Road,",Launceston,TAS,7250,"45 Waverley Road, Launceston, TAS, 7250",-41.4352856,147.1784097
001ON00000OCSQS,,"5 Savery Way,",Rockingham Dc,WA,6967,"5 Savery Way, Rockingham Dc, WA, 6967",,
001ON00000OCSQV,,0,Saint Marys,SA,5039,"0, Saint Marys, SA, 5039",45.07908353317991,-74.38389296719878
001ON00000OCSR0,,"River Studios,",West Melbourne,VIC,3003,"River Studios, West Melbourne, VIC, 3003",-37.808747,144.9238207
001ON00000OCSR1,,0,Warners Bay,NSW,2282,"0, Warners Bay, NSW, 2282",-32.9739199,151.6489887
001ON00000OCSR2,,"31 Caroline Lane,",St Peters,NSW,2044,"31 Caroline Lane, St Peters, NSW, 2044",-33.9082877,151.1806876
001ON00000OCSR3,,"172 Ring Road,",Ballarat,VIC,3355,"172 Ring Road, Ballarat, VIC, 3355",-37.5318486,143.8036419
001ON00000OCSR4,,"62 Drummond Street,",South Windsor,NSW,2756,"62 Drummond Street, South Windsor, NSW, 2756",-33.6229852,150.8039117
001ON00000OCSR6,,"1212 Old Port Road,",Royal Park,SA,5014,"1212 Old Port Road, Royal Park, SA, 5014",-34.8597184,138.5032215
001ON00000OCSR8,,0,Pakenham,VIC,3809,"0, Pakenham, VIC, 3809",-38.079153,145.4833359
001ON00000OCSR9,,0,Auckland,NI,1010,"0, Auckland, NI, 1010",-33.8922453,150.8669614
0017F00001UEJ1J,,1599-1609 Malvern Road,Glen Iris,VIC,3146,"1599-1609 Malvern Road, Glen Iris, VIC, 3146",-37.8542075,145.0514873
0017F00001UEJ6O,,1 Equator Road,Thomastown,VIC,3074,"1 Equator Road, Thomastown, VIC, 3074",-37.6846835,145.015913
0017F00001UEJJG,,Unit 3/15 Dunstan Road,Wingfield,SA,5013,"Unit 3/15 Dunstan Road, Wingfield, SA, 5013",,
001ON000002FWLZ,,171 Woodville Road,Villawood,NSW,2163,"171 Woodville Road, Villawood, NSW, 2163",-33.8768378,150.9808801
001ON000006P18W,,Head Office 3 Reserve Street,Beaconsfield,NSW,2015,"Head Office 3 Reserve Street, Beaconsfield, NSW, 2015",,
0012T0000034WQS,,92 McEwan Road,Heidelberg West,VIC,3081,"92 McEwan Road, Heidelberg West, VIC, 3081",-37.7340304,145.0543656
0012T00000361HX,,270 Darebin Road,Fairfield,VIC,3078,"270 Darebin Road, Fairfield, VIC, 3078",-37.7661044,145.024228
0015K000004TGXK,,103 Mornington Street,North Geelong,Victoria,3215,"103 Mornington Street, North Geelong, Victoria, 3215",-38.1135357,144.3480186
0017F00001UEIQ2,,90 Prosperity Way,Dandenong South,VIC,3175,"90 Prosperity Way, Dandenong South, VIC, 3175",-38.0514948,145.2109566
0017F00001UEJ1Q,,"1B/69 Dalton Road,",Thomastown,VIC,3074,"1B/69 Dalton Road, Thomastown, VIC, 3074",-37.6891721,145.0276489
0017F00001UEJ1X,,7/29 Gladstone Road,Dandenong,VIC,3175,"7/29 Gladstone Road, Dandenong, VIC, 3175",-37.9728129,145.2045325
0017F00001UEJE5,,"83-93 Canterbury Road,",Braeside,VIC,3195,"83-93 Canterbury Road, Braeside, VIC, 3195",-38.011013,145.1176011
0017F00001UEJJJ,,0,VIRGINIA,QLD,4014,"0, VIRGINIA, QLD, 4014",-27.3808493,153.0645392
0017F00001UEJRV,,0,0,VIC,3810,"0, 0, VIC, 3810",43.146300123529414,-79.3926832882353
0017F000023MJI0,,22 Ravenhall Way,Ravenhall,VIC,3023,"22 Ravenhall Way, Ravenhall, VIC, 3023",-37.7739701,144.7477545
0019S000004Y7YV,,Level 34/140 William Street,Melbourne,VIC,3004,"Level 34/140 William Street, Melbourne, VIC, 3004",,
0019S000006QZHA,,200 Kingsgrove Road,Kingsgrove,NSW,2208,"200 Kingsgrove Road, Kingsgrove, NSW, 2208",-33.9294669,151.0986573
001ON000002G3DB,,73-77 Geddes Street,Mulgrave,VIC,3170,"73-77 Geddes Street, Mulgrave, VIC, 3170",-37.9095658,145.1522593
001ON00000FPY0G,,6 Precision Lane,Notting Hill,VIC,3168,"6 Precision Lane, Notting Hill, VIC, 3168",-37.9099063,145.1490246
001ON00000FPZHC,,0,Wetherill Park,NSW,2164,"0, Wetherill Park, NSW, 2164",-33.8483333,150.9011111
001ON00000GAFOY,,"131 National Boulevard,",Campbellfield,VIC,3061,"131 National Boulevard, Campbellfield, VIC, 3061",-37.6501266,144.9426754
001ON00000GDJHW,,125 Port Road,Hindmarsh,SA,5007,"125 Port Road, Hindmarsh, SA, 5007",-34.905917,138.5738871
001ON00000JFA7O,,"195 Chesterville Road,",Moorabbin,VIC,3189,"195 Chesterville Road, Moorabbin, VIC, 3189",-37.9440605,145.0592132
001ON00000JFA8U,,"12 Kearney Street,",Bayswater,VIC,3153,"12 Kearney Street, Bayswater, VIC, 3153",-37.8441355,145.2728235
001ON00000OCSMO,,64 Wandeara Crescent,Mundaring,WA,6073,"64 Wandeara Crescent, Mundaring, WA, 6073",-31.9071998,116.1794274
001ON00000OCSN4,,0,St. Peters,NSW,2044,"0, St. Peters, NSW, 2044",-33.9111235,151.1761345
001ON00000OCSOR,,"9 Nurla Avenue,",Little Bay,NSW,2036,"9 Nurla Avenue, Little Bay, NSW, 2036",-33.9779162,151.2403924
001ON00000OCSOS,,0,Elanora,QLD,4221,"0, Elanora, QLD, 4221",-28.126998,153.4591428
001ON00000OCSOT,,"Unit 42/3-15 Jackman St,",Southport,QLD,4215,"Unit 42/3-15 Jackman St, Southport, QLD, 4215",-27.9620303,153.4118017
001ON00000OCSR5,,140 Castro Way,Derrimut,VIC,3026,"140 Castro Way, Derrimut, VIC, 3026",-37.7889099,144.7801106
001ON00000OCSR7,,5 Surveyors Drive,Derwent Park,TAS,7009,"5 Surveyors Drive, Derwent Park, TAS, 7009",-42.8278792,147.3069111
0017F00001UEIPG,,0,0,0,0,"0, 0, 0, 0",-33.8943405,151.1965789
001ON0000047MGY,,88 Oriel Road,Ivanhoe,VIC,3079,"88 Oriel Road, Ivanhoe, VIC, 3079",-37.7573639,145.0378778
001ON00000G1QQF,,30 Ironbark Close,Berrinba,QLD,4117,"30 Ironbark Close, Berrinba, QLD, 4117",-27.647468,153.0956042
001ON00000JFABL,,0,Melbourne,VIC,3000,"0, Melbourne, VIC, 3000",-37.8142454,144.9631732
001ON00000OCSML,,#N/A,#N/A,#N/A,#N/A,,,
001ON00000OCSMF,,"13 Hickson Road,",Dawes Point,NSW,2000,"13 Hickson Road, Dawes Point, NSW, 2000",-33.8558017,151.2066102
001ON00000OCSMG,,"20 Saint Georges Terrace,",Perth,WA,6000,"20 Saint Georges Terrace, Perth, WA, 6000",38.8057849,-76.967554
001ON00000OCSMI,,"101 Miller Street,",North Sydney,NSW,2060,"101 Miller Street, North Sydney, NSW, 2060",-33.8398572,151.2070078
001ON00000OCSMJ,,"Level 4, 140 Bourke Street,",Melbourne,VIC,3000,"Level 4, 140 Bourke Street, Melbourne, VIC, 3000",-37.81159825730106,144.9681935054506
001ON00000OCSMK,,"17 Guthrie Street,",Brisbane,QLD,4000,"17 Guthrie Street, Brisbane, QLD, 4000",-27.4620529,153.0053299
001ON00000OCSQF,,#N/A,#N/A,#N/A,#N/A,,,
0012T000002ZK3O,,9 Circuit Dr,Hendon,SA,5014,"9 Circuit Dr, Hendon, SA, 5014",-34.876901,138.5133063
0017F00001UEIOV,,#N/A,#N/A,#N/A,#N/A,,,
0017F00001UEJG7,,#N/A,#N/A,#N/A,#N/A,,,
001ON00000OCSQO,,#N/A,#N/A,#N/A,#N/A,,,
001ON000002FQLV,,#N/A,#N/A,#N/A,#N/A,,,
001ON00000OCSN9,,#N/A,#N/A,#N/A,#N/A,,,
0015K0000041GOA,,"Unit level 18, 530 Collins Street,",Melbourne,VIC,3000,"Unit level 18, 530 Collins Street, Melbourne, VIC, 3000",-37.8147114,144.9659079
0015K000004NHHD,,309 Little Collins Street,Melbourne,VIC,3000,"309 Little Collins Street, Melbourne, VIC, 3000",-37.8152165,144.9644832
0015M000003EIYS,,Bourke Street,Melbourne,VIC,3000,"Bourke Street, Melbourne, VIC, 3000",-37.8154307,144.9592088
0017F00001UEJIB,,#N/A,#N/A,#N/A,#N/A,,,
0017F00001UEJJE,,#N/A,#N/A,#N/A,#N/A,,,
0019S000002QZF6,,"Level 2, 213 Clarence Street",Sydney,NSW,2000,"Level 2, 213 Clarence Street, Sydney, NSW, 2000",-33.877298,151.2090143
0019S000004FZ1C,,#N/A,#N/A,#N/A,#N/A,,,
0019S000005BUC4,,#N/A,#N/A,#N/A,#N/A,,,
0019S000006IYKS,,"697 Collins Street,",Docklands,VIC,3008,"697 Collins Street, Docklands, VIC, 3008",-37.8206114,144.9517904
0019S000006MFTL,,580 Church Street,Richmond,VIC,3121,"580 Church Street, Richmond, VIC, 3121",-37.8301152,144.9969234
001ON000007FTR4,,"Level 12, 255 Pitt Street,",Sydney,NSW,2000,"Level 12, 255 Pitt Street, Sydney, NSW, 2000",,
001ON000007WBQW,,#N/A,#N/A,#N/A,#N/A,,,
001ON00000OCSKI,,"Unit 4 216 Fulham Street,",Cloverdale,WA,6105,"Unit 4 216 Fulham Street, Cloverdale, WA, 6105",,
001ON00000OCSKN,,"4 Holt Street,",Mcmahons Point,NSW,2060,"4 Holt Street, Mcmahons Point, NSW, 2060",-33.8427518,151.2035129
001ON00000OCSKO,,"Unit level 1, 68 King Street,",Perth,WA,6000,"Unit level 1, 68 King Street, Perth, WA, 6000",42.7539988,-71.4474507
001ON00000OCSKS,,"U 3 32 Frederick Street,",Doncaster,VIC,3108,"U 3 32 Frederick Street, Doncaster, VIC, 3108",-37.7909452,145.1263633
001ON00000OCSL2,,"Old Redlands School, 22 Inchbolds Road,",Redlands,NSW,2646,"Old Redlands School, 22 Inchbolds Road, Redlands, NSW, 2646",,
001ON00000OCSL3,,"23 South Street,",Rydalmere,NSW,2116,"23 South Street, Rydalmere, NSW, 2116",-33.8168885,151.0479056
001ON00000OCSLA,,"58A Mawby Road,",Bentleigh East,VIC,3165,"58A Mawby Road, Bentleigh East, VIC, 3165",-37.9295548,145.0552285
001ON00000OCSLD,,"Unit level 4, 67 Saint Pauls Terrace,",Spring Hill,QLD,4000,"Unit level 4, 67 Saint Pauls Terrace, Spring Hill, QLD, 4000",-27.4604854,153.0282283
001ON00000OCSLE,,"Unit level 7, 167 Macquarie Street,",Sydney,NSW,2000,"Unit level 7, 167 Macquarie Street, Sydney, NSW, 2000",46.13506633333333,-60.18391926666667
001ON00000OCSLG,,"Level 27 101 Collins St,",Melbourne,VIC,3000,"Level 27 101 Collins St, Melbourne, VIC, 3000",,
001ON00000OCSLL,,"1 Nicholson Street,",East Melbourne,VIC,3002,"1 Nicholson Street, East Melbourne, VIC, 3002",-37.7797404,144.9779906
001ON00000OCSLQ,,"Unit suite 7, 800 Albany Highway,",East Victoria Park,WA,6101,"Unit suite 7, 800 Albany Highway, East Victoria Park, WA, 6101",,
001ON00000OCSLW,,"33 Allison Street,",Bowen Hills,QLD,4006,"33 Allison Street, Bowen Hills, QLD, 4006",-27.439745,153.0415332
001ON00000OCSLX,,"39 Sherwood Road,",Toowong,QLD,4066,"39 Sherwood Road, Toowong, QLD, 4066",-27.4850804,152.9915917
001ON00000OCSLY,,"Suite 3, Level 1, 202 ST,",Glebe,NSW,2037,"Suite 3, Level 1, 202 ST, Glebe, NSW, 2037",,
001ON00000OCSLZ,,"1 Link Road,",Zetland,NSW,2017,"1 Link Road, Zetland, NSW, 2017",-33.9111561,151.2118636
001ON00000OCSM0,,"Doncaster Road,",Doncaster,VIC,3108,"Doncaster Road, Doncaster, VIC, 3108",-37.7880218,145.1064695
001ON00000OCSM1,,"Unit level 25, 140 Saint Georges Terrace,",Perth,WA,6000,"Unit level 25, 140 Saint Georges Terrace, Perth, WA, 6000",,
001ON00000OCSM2,,"Lot 14 Frome Road,",Adelaide,SA,5000,"Lot 14 Frome Road, Adelaide, SA, 5000",-34.9201425,138.6074241
001ON00000OCSM3,,"Level 6, 499 St,",Melbourne,VIC,3004,"Level 6, 499 St, Melbourne, VIC, 3004",-37.8088941,144.9487754
001ON00000OCSM4,,"56 Easey Street,",Collingwood,VIC,3066,"56 Easey Street, Collingwood, VIC, 3066",-37.7976649,144.987039
001ON00000OCSM5,,"30 Currie Street,",Adelaide,SA,5000,"30 Currie Street, Adelaide, SA, 5000",-34.924188,138.5984082
001ON00000OCSM6,,"Level 5 17-19 Bridge St,",Sydney,NSW,2000,"Level 5 17-19 Bridge St, Sydney, NSW, 2000",-33.877298,151.2090143
001ON00000OCSM7,,"Suite 63, 102 Railway Street,",West Perth,WA,6005,"Suite 63, 102 Railway Street, West Perth, WA, 6005",-31.93224,115.8610054
001ON00000OCSM8,,"10 Spring St,",Sydney,NSW,2000,"10 Spring St, Sydney, NSW, 2000",-33.8648089,151.2091619
001ON00000OCSM9,,"165-167 Phillip Street,",Sydney,NSW,2000,"165-167 Phillip Street, Sydney, NSW, 2000",-33.8623561,151.2120737
0015K0000041GTV,,"Level 1, 4-10 Amsterdam Street",Richmond,Victoria,3121,"Level 1, 4-10 Amsterdam Street, Richmond, Victoria, 3121",-37.83124,144.9978403
0015K000004ACCE,,67 Renwick Street,Redfern,NSW,2016,"67 Renwick Street, Redfern, NSW, 2016",-33.8925484,151.2014001
0015K000004H5QW,,#N/A,#N/A,#N/A,#N/A,,,
0015K000004I6XR,,115 Salmon Street,Port Melbourne,VIC,3207,"115 Salmon Street, Port Melbourne, VIC, 3207",-37.8288839,144.922777
0015M000003FNGG,,"Level 19, Tower B, Citadel Tower, 799 Pacific Highway",Chatswood,NSW,2067,"Level 19, Tower B, Citadel Tower, 799 Pacific Highway, Chatswood, NSW, 2067",,
0017F00001YO4M0,,La Trobe,Melbourne,VIC,3000,"La Trobe, Melbourne, VIC, 3000",-37.7280018,145.0583633
0017F00001Z1Z6R,,"Level 3, 1 Southbank Boulevard",Southbank,VIC,3006,"Level 3, 1 Southbank Boulevard, Southbank, VIC, 3006",-37.8224187,144.964982
0019S000005QFVP,,"37 Kennigo Street,",Fortitude Valley,QLD,4006,"37 Kennigo Street, Fortitude Valley, QLD, 4006",-27.4568373,153.0304944
0019S000005MPOH,,"Unit a5 1, 85 Turner Street,",Port Melbourne,VIC,3207,"Unit a5 1, 85 Turner Street, Port Melbourne, VIC, 3207",,
0019S000007DIZT,,470 Collins Street,Melbourne,VIC,3000,"470 Collins Street, Melbourne, VIC, 3000",-37.8174452,144.9584024
0019S00000845GP,,"Unit 401, 601 Pacific Highway St,",St Leonards,NSW,2065,"Unit 401, 601 Pacific Highway St, St Leonards, NSW, 2065",,
001ON0000038JLX,,#N/A,#N/A,#N/A,#N/A,,,
001ON000009QTWZ,,"43a Sparks Road,",Henderson,WA,6166,"43a Sparks Road, Henderson, WA, 6166",-32.1526934,115.7752531
001ON00000BPJRB,,"333 Ann Street,",Brisbane City,QLD,4000,"333 Ann Street, Brisbane City, QLD, 4000",-27.4649591,153.0283923
001ON00000GPIO1,,62 Brandl Street,Eight Mile Plains,QLD,4113,"62 Brandl Street, Eight Mile Plains, QLD, 4113",-27.5817627,153.0969408
001ON00000HNG3R,,"720 Old Princes Highway, Suite 3,",Sutherland,NSW,2232,"720 Old Princes Highway, Suite 3, Sutherland, NSW, 2232",,
001ON00000JAE3E,,"360 Chesterville Road,",Bentleigh East,VIC,3165,"360 Chesterville Road, Bentleigh East, VIC, 3165",-37.9313264,145.0627629
001ON00000OCSKE,,"Unit 1, 25 Alicia Street,",Southport,QLD,4215,"Unit 1, 25 Alicia Street, Southport, QLD, 4215",,
001ON00000OCSKG,,"Unit 15, 76 Newcastle Street,",Perth,WA,6000,"Unit 15, 76 Newcastle Street, Perth, WA, 6000",,
001ON00000OCSKH,,"Unit 1, Molonglo Mall, 105 Newcastle Street,",Fyshwick,ACT,2609,"Unit 1, Molonglo Mall, 105 Newcastle Street, Fyshwick, ACT, 2609",,
001ON00000OCSKL,,"3 Verrinder Road,",Berrimah,NT,828,"3 Verrinder Road, Berrimah, NT, 828",-12.4458087,130.946828
001ON00000OCSKP,,"Suite 1, 189 Kelvin Grove Road,",Kelvin Grove,QLD,4059,"Suite 1, 189 Kelvin Grove Road, Kelvin Grove, QLD, 4059",-27.4510447,153.0112797
001ON00000OCSKQ,,"Level 1, 516 Hay Street,",Subiaco,WA,6008,"Level 1, 516 Hay Street, Subiaco, WA, 6008",,
001ON00000OCSKR,,"Unit level 23 tower 5, 727 Collins Street,",Docklands,VIC,3008,"Unit level 23 tower 5, 727 Collins Street, Docklands, VIC, 3008",,
001ON00000OCSKW,,"370A Porter Street,",Templestowe,VIC,3106,"370A Porter Street, Templestowe, VIC, 3106",-37.7558889,145.1626681
001ON00000OCSKA,,Unit 2 3,Berrimah,NT,828,"Unit 2 3, Berrimah, NT, 828",-12.433883,130.9229031
001ON00000OCSKB,,Unit unit 11,North Rocks,NSW,2151,"Unit unit 11, North Rocks, NSW, 2151",-33.7918409,151.0005651
001ON00000OCSKF,,"Level 2, 46 Berwick Street,",Fortitude Valley,QLD,4006,"Level 2, 46 Berwick Street, Fortitude Valley, QLD, 4006",-27.4586177,153.0369494
001ON00000OCSKK,,"15-19 Dalrymple Road,",Garbutt,QLD,4814,"15-19 Dalrymple Road, Garbutt, QLD, 4814",-19.2771893,146.764154
001ON00000OCSKM,,"104 Wickham Street,",Fortitude Valley,QLD,4006,"104 Wickham Street, Fortitude Valley, QLD, 4006",-27.4584246,153.0327464
001ON00000OCSKX,,"304 The Parade,",Kensington,SA,5068,"304 The Parade, Kensington, SA, 5068",-34.9207433,138.6467028
001ON00000OCSL1,,"329 North Rocks Road,",North Rocks,NSW,2151,"329 North Rocks Road, North Rocks, NSW, 2151",-33.7717087,151.0245251
001ON00000OCSL4,,"Unit 24, 63 Knutsford,",Rivervale,WA,6103,"Unit 24, 63 Knutsford, Rivervale, WA, 6103",,
001ON00000OCSL7,,"24 Finchley Street,",Milton,QLD,4064,"24 Finchley Street, Milton, QLD, 4064",-27.4661797,153.0062002
001ON00000OCSL8,,"79 Osborne Street,",South Yarra,VIC,3141,"79 Osborne Street, South Yarra, VIC, 3141",-37.8424937,144.9907158
001ON00000OCSL9,,"PO Box 7364 Secret Harbour,",Secret Harbour,WA,6173,"PO Box 7364 Secret Harbour, Secret Harbour, WA, 6173",-32.4009024,115.7529313
001ON00000OCSLB,,"48 Luisini Road,",Wangara,WA,6065,"48 Luisini Road, Wangara, WA, 6065",-31.7970143,115.8277215
001ON00000OCSLC,,"47 Darby Street,",Cooks Hill,NSW,2300,"47 Darby Street, Cooks Hill, NSW, 2300",-32.9328519,151.7704151
001ON00000OCSLF,,"32 College Street,",Hawthorn,VIC,3122,"32 College Street, Hawthorn, VIC, 3122",-37.8172695,145.0246422
001ON00000OCSLH,,"319 Margaret Street,",Toowoomba City,QLD,4350,"319 Margaret Street, Toowoomba City, QLD, 4350",-27.5606349,151.9502124
001ON00000OCSLJ,,"20 Dale Street,",Brookvale,NSW,2100,"20 Dale Street, Brookvale, NSW, 2100",-33.7643174,151.2685681
001ON00000OCSLK,,"1 Eagle Street,",Brisbane City,QLD,4000,"1 Eagle Street, Brisbane City, QLD, 4000",-27.470296,153.0305241
001ON00000OCSLM,,"49 Broad,",Broadmeadow,NSW,2292,"49 Broad, Broadmeadow, NSW, 2292",-32.9225,151.7302778
001ON00000OCSLN,,"Unit 816 level 8, 90 Collins Street,",Melbourne,VIC,3000,"Unit 816 level 8, 90 Collins Street, Melbourne, VIC, 3000",,
001ON00000OCSLO,,"15 Stanmere Street,",Carindale,QLD,4152,"15 Stanmere Street, Carindale, QLD, 4152",-27.511809,153.1052806
001ON00000OCSLT,,"Level 15, 124 Walker Street,",North Sydney,NSW,2060,"Level 15, 124 Walker Street, North Sydney, NSW, 2060",-33.8375381,151.195539
001ON00000OCSLV,,"Unit suite 173, 580 Hay Street,",Perth,WA,6000,"Unit suite 173, 580 Hay Street, Perth, WA, 6000",,
001ON00000OCSLU,,"585 St,",Bowen Hills,QLD,4006,"585 St, Bowen Hills, QLD, 4006",-27.4522431,153.0356381
001ON00000OCSLI,,"527 Gregory Terrace,",Fortitude Valley,QLD,4006,"527 Gregory Terrace, Fortitude Valley, QLD, 4006",-27.4526831,153.0296856
0017F00001UEIRK,,#N/A,#N/A,#N/A,#N/A,,,
0019S000003Y3UT,,4 Harper Terrace,South Perth,WA,6151,"4 Harper Terrace, South Perth, WA, 6151",-31.9718801,115.8516443
0019S000007BI1X,,#N/A,#N/A,#N/A,#N/A,,,
001ON00000CWLIJ,,"Level 1 21,",Carlton,VIC,3053,"Level 1 21, Carlton, VIC, 3053",-37.8011134,144.9719861
001ON00000JFAAF,,"46-54 Cheviot Road,",Salisbury South,SA,5106,"46-54 Cheviot Road, Salisbury South, SA, 5106",-34.7815258,138.6456731
001ON00000OCSIE,,"7 Dulwich Street,",Loganholme,QLD,4129,"7 Dulwich Street, Loganholme, QLD, 4129",-27.681185,153.1954767
001ON00000OCSKJ,,"Unit level 7, 104 Melbourne Street,",South Brisbane,QLD,4101,"Unit level 7, 104 Melbourne Street, South Brisbane, QLD, 4101",,
001ON00000OCSKT,,"Unit level 2, 627 Chapel Street,",South Yarra,VIC,3141,"Unit level 2, 627 Chapel Street, South Yarra, VIC, 3141",,
001ON00000OCSKU,,"Level 2, 121 Walker Street,",North Sydney,NSW,2060,"Level 2, 121 Walker Street, North Sydney, NSW, 2060",-33.8745805,151.2167009
001ON00000OCSKY,,"Unit level 9, 307 Queen Street,",Brisbane City,QLD,4000,"Unit level 9, 307 Queen Street, Brisbane City, QLD, 4000",,
001ON00000OCSKZ,,"74 Victoria Parade,",Rockhampton City,QLD,4700,"74 Victoria Parade, Rockhampton City, QLD, 4700",-23.3754454,150.5125752
001ON00000OCSKV,,"Unit 124, 34 Glenferrie Drive,",Robina,QLD,4226,"Unit 124, 34 Glenferrie Drive, Robina, QLD, 4226",,
001ON00000OCSL0,,"472 Victoria Street,",Wetherill Park,NSW,2164,"472 Victoria Street, Wetherill Park, NSW, 2164",-33.8447382,150.8947986
0012T0000033YK1,,Western Ave,Westmeadows,Vic,3049,"Western Ave, Westmeadows, Vic, 3049",-37.6817176,144.8739686
0015K000004SRZ7,,#N/A,#N/A,#N/A,#N/A,,,
0015M000003DG7Z,,35 Cochranes Rd,Moorabbin,Vic,3189,"35 Cochranes Rd, Moorabbin, Vic, 3189",-37.9435166,145.0696892
0017F00001UEJVR,,#N/A,#N/A,#N/A,#N/A,,,
0019S000005WCEM,,"558 Pacific Highway Unit 9 St,",St Leonards,NSW,2065,"558 Pacific Highway Unit 9 St, St Leonards, NSW, 2065",,
001ON000002UJJG,,#N/A,#N/A,#N/A,#N/A,,,
001ON00000OCSKC,,"Level 3 / 349 Coronation Drive,",Milton,QLD,4064,"Level 3 / 349 Coronation Drive, Milton, QLD, 4064",,
001ON00000OCSLP,,"513 Dowling Street,",Wendouree,VIC,3355,"513 Dowling Street, Wendouree, VIC, 3355",-37.523104,143.8419725
0017F00001WLZUB,,"Level 13, 95 Pitt Street,",Sydney,NSW,2000,"Level 13, 95 Pitt Street, Sydney, NSW, 2000",-33.8649981,151.2086085
0015M0000036OPD,,"Level 12, 15 Blue St,",North Sydney,NSW,2060,"Level 12, 15 Blue St, North Sydney, NSW, 2060",-33.8375381,151.195539
0017F00001UEINI,,South Melbourne,0,Victoria,3205,"South Melbourne, 0, Victoria, 3205",-37.83344,144.9570533
001ON00000OCSL6,,"3 Burnett Street,",North Hobart,TAS,7000,"3 Burnett Street, North Hobart, TAS, 7000",-42.8721924,147.3217284
0019S000003MLC9,,"Level 8, 205 Pacific Highway",ST Leonards,NSW,2065,"Level 8, 205 Pacific Highway, ST Leonards, NSW, 2065",,
001ON000000N4YF,,105 Queen Street,Melbourne,VIC,3000,"105 Queen Street, Melbourne, VIC, 3000",-37.8161014,144.9609318
001ON00000OCSKD,,"386 South Road,",Richmond,SA,5033,"386 South Road, Richmond, SA, 5033",-34.936604,138.5706196
001ON00000OCSL5,,"Units 2 & 3/35 Sodium St,",Narangba,QLD,4504,"Units 2 & 3/35 Sodium St, Narangba, QLD, 4504",-27.1965929,152.9854935
0017F00001VP2O4,,"Level 7, 80 William Street",east sydney,NSW,2011,"Level 7, 80 William Street, east sydney, NSW, 2011",-33.8745805,151.2167009
0019S000005M0WV,,"Unit level 4, 8 Market Street,",Melbourne,VIC,3000,"Unit level 4, 8 Market Street, Melbourne, VIC, 3000",-37.8066288,144.9472172
001ON00000KOZJO,,"Level 1, 28 Balaclava Street,",Woollongabba,QLD,3671,"Level 1, 28 Balaclava Street, Woollongabba, QLD, 3671",,
001ON00000OCSLS,,"39 Shewring Road,",Mcminns Lagoon,NT,834,"39 Shewring Road, Mcminns Lagoon, NT, 834",-12.5312444,131.082977
001ON00000OCSLR,,"255 Whitehorse Road,",Balwyn,VIC,3103,"255 Whitehorse Road, Balwyn, VIC, 3103",-37.8120419,145.0768901
0015K000004CYNX,,"5-17 Madden Avenue,",North Shore,VIC,3214,"5-17 Madden Avenue, North Shore, VIC, 3214",-38.0898079,144.3746963
001ON000005SWQK,,"144 Russell Street,",Emu Plains,NSW,2750,"144 Russell Street, Emu Plains, NSW, 2750",-33.7482382,150.6541073
0012T000002XWUU,,7 Mint St,Wodonga,VIC,3690,"7 Mint St, Wodonga, VIC, 3690",-36.1235733,146.8970813
0015K0000044TU7,,92 Archies Creek Road,Archies Creek,VIC,3995,"92 Archies Creek Road, Archies Creek, VIC, 3995",-38.548363,145.5636441
0015K0000045E1L,,465 Auburn Road,Hawthorn East,VIC,3123,"465 Auburn Road, Hawthorn East, VIC, 3123",-37.8159401,145.0463162
0015K0000045IZN,,#N/A,#N/A,#N/A,#N/A,,,
0015K000004DKEU,,76 Heathcote Road,Moorebank,New South Wales,2170,"76 Heathcote Road, Moorebank, New South Wales, 2170",-33.9415349,150.9419749
0015K000004DPOU,,Abbott Road,Hallam,VIC,3803,"Abbott Road, Hallam, VIC, 3803",-38.0098256,145.2639429
0015K000004P53J,,"Cnr Strickland Rd &, Beischer St",East Bendigo,VIC,3550,"Cnr Strickland Rd &, Beischer St, East Bendigo, VIC, 3550",,
0015K000004RY3H,,#N/A,#N/A,#N/A,#N/A,,,
0015K000004SS0B,,14 Trade Place,Vermont,VIC,3133,"14 Trade Place, Vermont, VIC, 3133",-37.8343578,145.1860016
0015K000004CGLM,,#N/A,#N/A,#N/A,#N/A,,,
0015K000004FRVL,,#N/A,#N/A,#N/A,#N/A,,,
0015K000004GFG5,,#N/A,#N/A,#N/A,#N/A,,,
0019S000002QXIK,,Factory 1 210-218 Boundary Road,Braeside,VIC,3195,"Factory 1 210-218 Boundary Road, Braeside, VIC, 3195",,
0019S000003NXLC,,#N/A,#N/A,#N/A,#N/A,,,
0019S00000417QV,,32 Fiveways Blvd,Keysborough,VIC,3173,"32 Fiveways Blvd, Keysborough, VIC, 3173",-37.9901879,145.1504823
0019S000004PMKJ,,"Unit 9, 25 Conquest Way",Hallam,VIC,3803,"Unit 9, 25 Conquest Way, Hallam, VIC, 3803",,
0019S000004OMZY,,63 Vision Street,Dandenong South,VIC,3175,"63 Vision Street, Dandenong South, VIC, 3175",-38.0450345,145.2138489
0019S000005CIGA,,#N/A,#N/A,#N/A,#N/A,,,
0019S000005CKSR,,#N/A,#N/A,#N/A,#N/A,,,
0019S000005GZCG,,#N/A,#N/A,#N/A,#N/A,,,
0019S000005SR1B,,#N/A,#N/A,#N/A,#N/A,,,
0019S000005WCEP,,1 Chifley Drive,Moorabbin Airport,VIC,3194,"1 Chifley Drive, Moorabbin Airport, VIC, 3194",-37.972656,145.1065059
0019S0000061RMF,,#N/A,#N/A,#N/A,#N/A,,,
0019S000006MDHP,,108 Pruen Road,BERRIMAH,NT,828,"108 Pruen Road, BERRIMAH, NT, 828",-12.4368299,130.9279581
0019S000006ZUVO,,#N/A,#N/A,#N/A,#N/A,,,
0019S000007BSCT,,#N/A,#N/A,#N/A,#N/A,,,
0019S000007DHVU,,#N/A,#N/A,#N/A,#N/A,,,
0019S000007DIJU,,#N/A,#N/A,#N/A,#N/A,,,
0019S000007KPAY,,43-67 River Street,RICHMOND,VIC,3121,"43-67 River Street, RICHMOND, VIC, 3121",-37.8154731,145.0134757
0019S000007TOMO,,314-332 Boundary Road,Dingley Village,VIC,3172,"314-332 Boundary Road, Dingley Village, VIC, 3172",-37.9828574,145.1108587
0019S000007TTP9,,43 Frankston Gardens Drive,Carrum Downs,VIC,3201,"43 Frankston Gardens Drive, Carrum Downs, VIC, 3201",-38.1035837,145.1601068
0019S000007I80R,,10 GABRIELLE COURT,BAYSWATER NORTH,VIC,3153,"10 GABRIELLE COURT, BAYSWATER NORTH, VIC, 3153",-37.8234462,145.2850341
0019S000007NXBD,,#N/A,#N/A,#N/A,#N/A,,,
001ON000000QYOB,,#N/A,#N/A,#N/A,#N/A,,,
001ON000001JX2Y,,#N/A,#N/A,#N/A,#N/A,,,
001ON000001MEQY,,133 Newbridge Road,MooreBank,NSW,2170,"133 Newbridge Road, MooreBank, NSW, 2170",-33.9281196,150.930818
001ON000001MFAZ,,"14-18 Mills Street,",Cheltenham,VIC,3192,"14-18 Mills Street, Cheltenham, VIC, 3192",-37.9565034,145.0741386
001ON000001NQOJ,,"100 Atlantic Drive,",Keysborough,VIC,3173,"100 Atlantic Drive, Keysborough, VIC, 3173",-38.0185178,145.1853267
001ON000001NXN3,,Unit 4/1-5 Lake Dr,Dingley Village,VIC,3172,"Unit 4/1-5 Lake Dr, Dingley Village, VIC, 3172",-37.981143,145.1106886
001ON000001O4TM,,#N/A,#N/A,#N/A,#N/A,,,
001ON000001UNMX,,44-48 Ordish Roadf,DANDENONG SOUTH,VIC,3175,"44-48 Ordish Roadf, DANDENONG SOUTH, VIC, 3175",-38.0181056,145.1927349
001ON000001SR4Y,,#N/A,#N/A,#N/A,#N/A,,,
001ON000001VWDJ,,14-18 Mills Street,Cheltenham,VIC,3192,"14-18 Mills Street, Cheltenham, VIC, 3192",-37.9565034,145.0741386
001ON0000021P1Q,,#N/A,#N/A,#N/A,#N/A,,,
001ON00000241XL,,#N/A,#N/A,#N/A,#N/A,,,
001ON000002DMFW,,#N/A,#N/A,#N/A,#N/A,,,
001ON000002JKO4,,#N/A,#N/A,#N/A,#N/A,,,
001ON000002GXHP,,#N/A,#N/A,#N/A,#N/A,,,
001ON000003GVYE,,3 Redemptora Rd,HENDERSON,WA,6166,"3 Redemptora Rd, HENDERSON, WA, 6166",-32.154324,115.7704881
001ON000004ARDO,,#N/A,#N/A,#N/A,#N/A,,,
001ON000004LNQL,,Suite 5/205-211 Forster Rd,Mount Waverley,VIC,3149,"Suite 5/205-211 Forster Rd, Mount Waverley, VIC, 3149",-37.8992734,145.1286438
001ON000005AM5A,,54 Duerdin St,Clayton,VIC,3168,"54 Duerdin St, Clayton, VIC, 3168",-37.9105567,145.1459436
001ON000005ZW6H,,0,BAYSWATER,VIC,3153,"0, BAYSWATER, VIC, 3153",-37.8454443,145.2647667
001ON0000072EWP,,#N/A,#N/A,#N/A,#N/A,,,
001ON000007PH4U,,2 Ashford Avenue,Milperra,NSW,2214,"2 Ashford Avenue, Milperra, NSW, 2214",-33.9301833,150.9907467
001ON000008CBFA,,#N/A,#N/A,#N/A,#N/A,,,
001ON000008H5ST,,#N/A,#N/A,#N/A,#N/A,,,
001ON00000ARKDD,,"Level 32, 101 Miller Street",North Sydney,NSW,2080,"Level 32, 101 Miller Street, North Sydney, NSW, 2080",-33.8398572,151.2070078092077
001ON00000AS3BJ,,04-103/152 Elizabeth St,Melbourne,VIC,3000,"04-103/152 Elizabeth St, Melbourne, VIC, 3000",-37.8144604,144.9635452
001ON00000AS7WF,,#N/A,#N/A,#N/A,#N/A,,,
001ON00000AVCZQ,,Corner Fulcrum & Bandara Streets,RICHLANDS,QLD,4077,"Corner Fulcrum & Bandara Streets, RICHLANDS, QLD, 4077",,
001ON00000BMHA9,,#N/A,#N/A,#N/A,#N/A,,,
001ON00000BEZG0,,2/52 Fox Dr,Dandenong South,VIC,3175,"2/52 Fox Dr, Dandenong South, VIC, 3175",-38.0555082,145.2222586
001ON00000CJJQS,,#N/A,#N/A,#N/A,#N/A,,,
001ON00000CES2W,,C/- AUSTRALASIAN MARITIME GROUP,REDBANK,VIC,3003,"C/- AUSTRALASIAN MARITIME GROUP, REDBANK, VIC, 3003",,
001ON00000CZTC0,,2/63 Wells Road,Chelsea Heights,VIC,3196,"2/63 Wells Road, Chelsea Heights, VIC, 3196",-38.0340017,145.134504
001ON00000E6AFP,,#N/A,#N/A,#N/A,#N/A,,,
001ON00000ES4K4,,9-11 South Link,Dandenong South,VIC,3175,"9-11 South Link, Dandenong South, VIC, 3175",-38.0217221,145.2384188
001ON00000FEBCD,,15 Redbank Place,Picton,NSW,2571,"15 Redbank Place, Picton, NSW, 2571",-34.193305,150.598171
001ON00000FOJKI,,#N/A,#N/A,#N/A,#N/A,,,
001ON00000G6Z7I,,#N/A,#N/A,#N/A,#N/A,,,
001ON00000GZUF8,,#N/A,#N/A,#N/A,#N/A,,,
001ON00000HMM5W,,5 Amay Crescent,Ferntree Gully,VIC,3156,"5 Amay Crescent, Ferntree Gully, VIC, 3156",-37.8843625,145.2794696
001ON00000HN7XS,,106 Fairbank Road,Clayton South,VIC,3169,"106 Fairbank Road, Clayton South, VIC, 3169",-37.9416826,145.1254847
001ON00000IQV6P,,379-383 Lower Dandenong Road,Dingley Village,VIC,3172,"379-383 Lower Dandenong Road, Dingley Village, VIC, 3172",-37.9863909,145.1122642
001ON00000JD64F,,Factory 3/7 Barry Ct,Wangaratta,VIC,3677,"Factory 3/7 Barry Ct, Wangaratta, VIC, 3677",-36.3652322,146.2932958
001ON00000JFSQH,,Level 8 1008 Hay Street,PERTH,WA,6000,"Level 8 1008 Hay Street, PERTH, WA, 6000",,
001ON00000JFSQK,,"19/591 Withers Road,",Rouse Hill,NSW,2155,"19/591 Withers Road, Rouse Hill, NSW, 2155",-33.681488,150.9281992
001ON00000JFSRI,,"2077 State Highway 10,","Waipapa, Northland",NI,295,"2077 State Highway 10, Waipapa, Northland, NI, 295",-35.2040138,173.9139953
001ON00000JFZJS,,50 Honeycomb Drive,Eastern Creek,NSW,2766,"50 Honeycomb Drive, Eastern Creek, NSW, 2766",-33.8108977,150.8427519
001ON00000JFZK3,,41 De Havilland Rd,Mordialloc,VIC,3195,"41 De Havilland Rd, Mordialloc, VIC, 3195",-37.9895105,145.100369
001ON00000JFZKE,,"12/15 Cochranes Road,",Moorabbin,VIC,3189,"12/15 Cochranes Road, Moorabbin, VIC, 3189",-37.9435166,145.0696892
001ON00000JFZKP,,32 Ebden St,Ballarat East,VIC,3350,"32 Ebden St, Ballarat East, VIC, 3350",-37.5587704,143.8655056
001ON00000JFZOU,,101 Miller Street,North Sydney,NSW,2060,"101 Miller Street, North Sydney, NSW, 2060",-33.8398572,151.2070078
001ON00000JFZP8,,8/8 Victoria Ave,Castle Hill,NSW,2154,"8/8 Victoria Ave, Castle Hill, NSW, 2154",-33.7295222,150.9790276
001ON00000JFZQC,,12-16 Catalano Road,CANNING VALE,WA,6163,"12-16 Catalano Road, CANNING VALE, WA, 6163",-32.0651219,115.897163
001ON00000JFZQY,,16 Homevale Dr,Botanic Ridge,VIC,3977,"16 Homevale Dr, Botanic Ridge, VIC, 3977",-38.1432103,145.2898013
001ON00000JFZQE,,"15 -19 Grey Gum Road,",Taree,NSW,2430,"15 -19 Grey Gum Road, Taree, NSW, 2430",-31.8935757,152.4514301
001ON00000JFZQJ,,Whittlesea Kinglake Road,Kinglake West,VIC,3757,"Whittlesea Kinglake Road, Kinglake West, VIC, 3757",-37.47665,145.2380687
001ON00000JFZQT,,"28 Cerina Circuit,",Jimboomba,QLD,4280,"28 Cerina Circuit, Jimboomba, QLD, 4280",-27.8347044,153.0235658
001ON00000JFZRM,,37-53 Whiteside Rd,Clayton South,VIC,3169,"37-53 Whiteside Rd, Clayton South, VIC, 3169",-37.938613,145.1219301
001ON00000JFZVR,,12 Langslow St.,Castlemaine,VIC,3450,"12 Langslow St., Castlemaine, VIC, 3450",-37.0737254,144.1969545
001ON00000JFZVZ,,"Unit 1, 35 Wellington Street,",Osborne Park,QLD,4160,"Unit 1, 35 Wellington Street, Osborne Park, QLD, 4160",,
001ON00000JFZXL,,1/11 Pilgrim Court,Ringwood,VIC,3134,"1/11 Pilgrim Court, Ringwood, VIC, 3134",-37.8294874,145.2145727
001ON00000JFZXO,,84 Northgate Drive,Thomastown,VIC,3074,"84 Northgate Drive, Thomastown, VIC, 3074",-37.6884008,145.0342649
001ON00000JFZXP,,"82 Eagle Street,",Brisbane,QLD,4000,"82 Eagle Street, Brisbane, QLD, 4000",-27.4667415,153.0298088
001ON00000JFZXZ,,Earlwood Dr,Wheelers Hill,VIC,3150,"Earlwood Dr, Wheelers Hill, VIC, 3150",-37.9100278,145.1738559
001ON00000JFA1H,,16 Hooper Rd,Wonga Park,VIC,3115,"16 Hooper Rd, Wonga Park, VIC, 3115",-37.7439225,145.2501976
001ON00000JFA1O,,58-60 Quantum Close,Dandenong South,VIC,3175,"58-60 Quantum Close, Dandenong South, VIC, 3175",-38.0298892,145.2380996
001ON00000JFA1P,,Level 2/ 1 Southbank Blvd,Southbank,VIC,3006,"Level 2/ 1 Southbank Blvd, Southbank, VIC, 3006",-37.8224187,144.964982
001ON00000JFA3G,,4 Bowsprit Way,Kilcunda,VIC,3995,"4 Bowsprit Way, Kilcunda, VIC, 3995",-38.5491676,145.4795518
001ON00000JFA3I,,65 Canterbury Road,Montrose,VIC,3765,"65 Canterbury Road, Montrose, VIC, 3765",-37.8133133,145.3268816
001ON00000JFA3J,,57-59 HENDERSON ROAD,Clayton North,VIC,3168,"57-59 HENDERSON ROAD, Clayton North, VIC, 3168",-37.914906,145.1450072
001ON00000JFA3W,,"Level 26, 44 Market Street",Sydney,NSW,2000,"Level 26, 44 Market Street, Sydney, NSW, 2000",,
001ON00000JFA3H,,"27/ 10 Anderson Street,",Banksmeadow,NSW,2019,"27/ 10 Anderson Street, Banksmeadow, NSW, 2019",-33.9471155,151.2129702
001ON00000JFA40,,Moorabool St,Geelong,VIC,3220,"Moorabool St, Geelong, VIC, 3220",-38.1597958,144.3549436
001ON00000JFA4K,,7 Suffolk Road,Dandenong North,VIC,3175,"7 Suffolk Road, Dandenong North, VIC, 3175",-37.9482299,145.2209441
001ON00000JFA8Z,,35-37 Nissan Drive,Dandenong South,VIC,3175,"35-37 Nissan Drive, Dandenong South, VIC, 3175",-38.0216331,145.2206933
001ON00000JFAAQ,,12 Sabre Crescent,JANDAKOT,WA,6164,"12 Sabre Crescent, JANDAKOT, WA, 6164",-32.0922584,115.8659772
001ON00000JFAEO,,"Unit 6, 8 Beaconsfield Street",Fyshwick,ACT,2609,"Unit 6, 8 Beaconsfield Street, Fyshwick, ACT, 2609",,
001ON00000JFAEQ,,"F1 , 8 Aster Avenue,",Carrum Downs,VIC,3201,"F1 , 8 Aster Avenue, Carrum Downs, VIC, 3201",-38.0993724,145.1625716
001ON00000JFAFM,,"14 Sigma Drive,",Croydon South,VIC,3136,"14 Sigma Drive, Croydon South, VIC, 3136",-37.8162573,145.2955891
001ON00000JFAFC,,"379 Somerville Road,",West Footscray,VIC,3012,"379 Somerville Road, West Footscray, VIC, 3012",-37.8109711,144.864351
001ON00000JFAFH,,"Unit 5, 333 Canterbury Road,",Canterbury,VIC,3126,"Unit 5, 333 Canterbury Road, Canterbury, VIC, 3126",-37.8244372,145.0860933
001ON00000JFAGM,,"90-92 Boundary Road,",Sunshine West,0,3020,"90-92 Boundary Road, Sunshine West, 0, 3020",-37.8156875,144.8152635
001ON00000JFAGK,,"4 Huntsmore Road,",Minto,NSW,2566,"4 Huntsmore Road, Minto, NSW, 2566",-34.0362799,150.8372196
001ON00000JFAKS,,"1, 46 Mullingar Way",LANDSDALE,WA,6065,"1, 46 Mullingar Way, LANDSDALE, WA, 6065",44.51509799228968,-79.99036631206326
001ON00000JFAKI,,"516 Nurigong Street,",South Albury,NSW,2640,"516 Nurigong Street, South Albury, NSW, 2640",-36.0908092,146.915571
001ON00000JFAMR,,"97 Harrison Road,",Dudley Park,SA,5008,"97 Harrison Road, Dudley Park, SA, 5008",-34.885359,138.5759606
001ON00000JFANQ,,"Bayside Industrial Coating, 5 Cashmore Rd",Portland,VIC,3305,"Bayside Industrial Coating, 5 Cashmore Rd, Portland, VIC, 3305",,
001ON00000JFANC,,"115 Beaconsfield Street,",Silverwater,NSW,2141,"115 Beaconsfield Street, Silverwater, NSW, 2141",-33.837067,151.036878
001ON00000JFAO1,,2a Link Road,Pakenham,VIC,3810,"2a Link Road, Pakenham, VIC, 3810",-38.0994117,145.4804741
001ON00000JFAOD,,"35 Redfern Drive,",Pambula,NSW,2549,"35 Redfern Drive, Pambula, NSW, 2549",,
001ON00000JFAOE,,23 Bormar Drive,Pakenham,VIC,3810,"23 Bormar Drive, Pakenham, VIC, 3810",-38.085695,145.5000185
001ON00000JFAOS,,"42 Punari Street,",Currajong,QLD,4812,"42 Punari Street, Currajong, QLD, 4812",-19.2738732,146.7754679
001ON00000JFAT5,,8 Millard St,Templestowe Lower,VIC,3107,"8 Millard St, Templestowe Lower, VIC, 3107",-37.7572062,145.095184
001ON00000JFATG,,"170 Golf Course Road,",Horsham,VIC,3400,"170 Golf Course Road, Horsham, VIC, 3400",-36.7403441,142.1884657
001ON00000JFATJ,,U 4 3-11 COOLSTORE RD,Croydon,VIC,3136,"U 4 3-11 COOLSTORE RD, Croydon, VIC, 3136",-37.7935302,145.2842435
001ON00000JFATV,,9 Bianca Dr,Aspendale Gardens,VIC,3195,"9 Bianca Dr, Aspendale Gardens, VIC, 3195",-38.0188697,145.1128021
001ON00000JFAU1,,Unit 3 13a Elite Way,Carrum Downs,VIC,3201,"Unit 3 13a Elite Way, Carrum Downs, VIC, 3201",-38.0937172,145.1587685
001ON00000JFAUT,,Factory 1/84 Hallam South Road,Hallam,VIC,3803,"Factory 1/84 Hallam South Road, Hallam, VIC, 3803",-38.0172623,145.2714329
001ON00000JFAYA,,516 High Street,Preston,VIC,3072,"516 High Street, Preston, VIC, 3072",-37.7342632,145.0047945
001ON00000JFAYG,,"3/41-43 Allied Dr,",Tullamarine,VIC,3043,"3/41-43 Allied Dr, Tullamarine, VIC, 3043",-37.7117837,144.8722924
001ON00000JFAYS,,0,Bonbeach,VIC,3196,"0, Bonbeach, VIC, 3196",-38.0630635,145.1276225
001ON00000JFAZU,,Factory 1/5 Olive Gr,Keysborough,VIC,3173,"Factory 1/5 Olive Gr, Keysborough, VIC, 3173",-37.9988283,145.1822654
001ON00000JFAZS,,"Level 2, Mechincal Engineering Building J07,",Camperdown,NSW,2006,"Level 2, Mechincal Engineering Building J07, Camperdown, NSW, 2006",,
001ON00000JFAAR,,"85 Mill Road,",Lilyfield,VIC,3212,"85 Mill Road, Lilyfield, VIC, 3212",-38.0195684,144.4155441
001ON00000JUGPF,,#N/A,#N/A,#N/A,#N/A,,,
001ON00000OCCDC,,19 Taurus Place,Christchurch 8062,SI,8062,"19 Taurus Place, Christchurch 8062, SI, 8062",-43.5312022,172.6941955
001ON00000OCIDR,,7b Midas Place,Christchurch 8024,SI,8024,"7b Midas Place, Christchurch 8024, SI, 8024",-43.5463526,172.6478308
001ON00000OCSDR,,6/5 Vuko Place,WARRIEWOOD,NSW,2102,"6/5 Vuko Place, WARRIEWOOD, NSW, 2102",-33.6930966,151.3017878
001ON00000OCSEM,,"1/59-61 Burrows Road,",Alexandria,NSW,2015,"1/59-61 Burrows Road, Alexandria, NSW, 2015",,
001ON00000OCSEQ,,20 Noel Rodgers Place,PALMERSTON NORTH,NI,4414,"20 Noel Rodgers Place, PALMERSTON NORTH, NI, 4414",-40.3246006,175.6268874
001ON00000OCSIN,,88 Hanson Road,Gladstone Central,QLD,4680,"88 Hanson Road, Gladstone Central, QLD, 4680",-23.8402717,151.2440566
001ON00000OCSIP,,"Unit 7, 31 Jessop Crescent",BERRIMAH,NT,828,"Unit 7, 31 Jessop Crescent, BERRIMAH, NT, 828",,
001ON00000OCSIS,,35 - 37 Maxwell Road,POORAKA,SA,5095,"35 - 37 Maxwell Road, POORAKA, SA, 5095",-34.8103099,138.6336816
001ON00000OCSIT,,24-26 Rendle Street,AITKENVALE,QLD,4814,"24-26 Rendle Street, AITKENVALE, QLD, 4814",-19.2919753,146.7697473
001ON00000OCSIU,,"Unit 18, 26 Park Road",Mulgrave,NSW,2756,"Unit 18, 26 Park Road, Mulgrave, NSW, 2756",,
001ON00000OCSIY,,1/993 South Pine Road,Everton Hills,QLD,4053,"1/993 South Pine Road, Everton Hills, QLD, 4053",-27.3917347,152.9746484
001ON00000OCSIZ,,1 Rowe St,Freshwater,NSW,2096,"1 Rowe St, Freshwater, NSW, 2096",-33.779235,151.2789054
001ON00000OCSIA,,12 Gravel Pit Road,DARRA,QLD,4076,"12 Gravel Pit Road, DARRA, QLD, 4076",-27.5614467,152.9440007
001ON00000OCSIB,,"Factory 31/ 31-39 Norcal Road,",Nunawading,VIC,3131,"Factory 31/ 31-39 Norcal Road, Nunawading, VIC, 3131",-37.8213898,145.1802317
001ON00000OCSIC,,1 Wicket Rd,Clyde,VIC,3978,"1 Wicket Rd, Clyde, VIC, 3978",-38.1281525,145.3170669
001ON00000OCSIF,,The Crescent,Mildura,VIC,3500,"The Crescent, Mildura, VIC, 3500",-34.1969439,142.1742135
001ON00000OCSIG,,"Unit 18, 40 Ricketts Rd",MOUNT WAVERLEY,VIC,3149,"Unit 18, 40 Ricketts Rd, MOUNT WAVERLEY, VIC, 3149",-37.8964149,145.13429
001ON00000OCSIH,,"Unit  19a, 75 Lorimer Street",DOCKLANDS,VIC,3008,"Unit  19a, 75 Lorimer Street, DOCKLANDS, VIC, 3008",,
001ON00000OCSII,,62 ASHFORD AVE,MILPERRA,nsw,2214,"62 ASHFORD AVE, MILPERRA, nsw, 2214",-33.9347992,150.9894234
001ON00000OCSIJ,,WAREHOUSE 2 1 Capital Place,Carrum Downs,VIC,3201,"WAREHOUSE 2 1 Capital Place, Carrum Downs, VIC, 3201",-38.0914761,145.1615692
001ON00000OCSIK,,158 Coonawarra Road,WINNELLIE,NT,821,"158 Coonawarra Road, WINNELLIE, NT, 821",-12.4303058,130.8816708
001ON00000OCSIL,,6 Parkland Road,Osborne Park,WA,6017,"6 Parkland Road, Osborne Park, WA, 6017",-31.9170946,115.8152838
001ON00000OCSIM,,"Unit 5, 7 Fannie Bay Place",Fannie Bay,NT,820,"Unit 5, 7 Fannie Bay Place, Fannie Bay, NT, 820",,
001ON00000OCSIR,,12 Woodlands Avenue,Sassfras,VIC,3787,"12 Woodlands Avenue, Sassfras, VIC, 3787",-37.8710617,145.3533808
001ON00000OCSIV,,82 Warren Road,Narromine,NSW,2821,"82 Warren Road, Narromine, NSW, 2821",-32.2232795,148.2375591
001ON00000OCSIX,,5 Railway Ave,Bright,VIC,3741,"5 Railway Ave, Bright, VIC, 3741",-36.7299452,146.9583978
001ON00000OCSJ1,,32 Bennet Avenue,MELROSE PARK,SA,5039,"32 Bennet Avenue, MELROSE PARK, SA, 5039",-34.9907405,138.5791708
001ON00000OCSJ3,,1585 Dandenong Hastings Rd,Langwarrin,VIC,3910,"1585 Dandenong Hastings Rd, Langwarrin, VIC, 3910",-38.1753097,145.2201005
001ON00000OCSJ4,,13 Lee Ann Crescent,Croydon,VIC,3136,"13 Lee Ann Crescent, Croydon, VIC, 3136",-37.7767978,145.3014645
001ON00000OCSJ6,,31 Optic Way,Carrum Downs,VIC,3201,"31 Optic Way, Carrum Downs, VIC, 3201",-38.0868947,145.1757472
001ON00000OCSJ7,,3 Perkin Court,Dandenong,VIC,3175,"3 Perkin Court, Dandenong, VIC, 3175",-37.9735978,145.2032166
001ON00000OCSJ8,,M27/2 Cowpasture Pl,Wetherill Park,NSW,2164,"M27/2 Cowpasture Pl, Wetherill Park, NSW, 2164",,
001ON00000OCSJ9,,8-10 Bray Avenue,TORRENSVILLE,SA,5031,"8-10 Bray Avenue, TORRENSVILLE, SA, 5031",-34.9165505,138.5561745
001ON00000OCSJA,,15/9 Mirra Crt,Bundoora,VIC,3083,"15/9 Mirra Crt, Bundoora, VIC, 3083",-37.7029802,145.0699026
001ON00000OCSJB,,21/1488 Ferntree Gully Rd,Knoxfield,VIC,3180,"21/1488 Ferntree Gully Rd, Knoxfield, VIC, 3180",-37.8988533,145.2432996
001ON00000OCSJE,,11 Cousin Street,Winnellie,NT,820,"11 Cousin Street, Winnellie, NT, 820",-12.4275839,130.8722609
001ON00000OCSJJ,,19 Simpson Street,Moorabbin East,VIC,3093,"19 Simpson Street, Moorabbin East, VIC, 3093",-37.9477117,145.0760834
001ON00000OCSJM,,16 Shanks Street,GYMPIE,QLD,4570,"16 Shanks Street, GYMPIE, QLD, 4570",-26.1909327,152.6714384
001ON00000OCSJN,,Unit unit 2,Brendale,QLD,4500,"Unit unit 2, Brendale, QLD, 4500",30.264369,-97.867565
001ON00000OCSJO,,12 McKechnie Drive,Eight Mile Plains,QLD,4113,"12 McKechnie Drive, Eight Mile Plains, QLD, 4113",-27.5772931,153.0968327
001ON00000OCSJQ,,11 Parkside Drive,CONDON,QLD,4815,"11 Parkside Drive, CONDON, QLD, 4815",-19.3218783,146.7177821
001ON00000OCSJR,,23 Power Rd,BAYSWATER,VIC,3153,"23 Power Rd, BAYSWATER, VIC, 3153",-37.845896,145.2728404
001ON00000OCSJT,,672 STUART HIGHWAY,BERRIMAH,NT,828,"672 STUART HIGHWAY, BERRIMAH, NT, 828",-12.4311316,130.9172988
001ON00000OCSJU,,15 Anictomatis Road,BERRIMAH,NT,828,"15 Anictomatis Road, BERRIMAH, NT, 828",-12.4439963,130.9461828
001ON00000OCSJY,,420 Bilsen Road,GEEBUNG,QLD,4034,"420 Bilsen Road, GEEBUNG, QLD, 4034",-27.3711504,153.0558211
001ON00000OCSJD,,"Unit 2, 67 Export Drive",East Arm,NT,822,"Unit 2, 67 Export Drive, East Arm, NT, 822",,
001ON00000OCSJF,,62 Industrial Drive,North Boambee Valley,NSW,2450,"62 Industrial Drive, North Boambee Valley, NSW, 2450",-30.3126211,153.0847312
001ON00000OCSJS,,41 Rookwood Road,Yagoona,NSW,2199,"41 Rookwood Road, Yagoona, NSW, 2199",-33.8955068,151.0378601
001ON00000OCSJW,,78 Colebard Street West,Acacia Ridge,QLD,4110,"78 Colebard Street West, Acacia Ridge, QLD, 4110",-27.5786291,153.0040542
001ON00000OCSK7,,4 Forbes Clos,Knoxfield,VIC,3180,"4 Forbes Clos, Knoxfield, VIC, 3180",-37.8975987,145.2507523
001ON00000OCSK9,,Unit1 /34 Stennett Rd,INGLEBURN,NSW,2565,"Unit1 /34 Stennett Rd, INGLEBURN, NSW, 2565",,
0019S000004ABM6,,109-111 Northcorp Boulevard,Broadmeadows,VIC,3047,"109-111 Northcorp Boulevard, Broadmeadows, VIC, 3047",-37.6821677,144.9493745
0019S000007HTK2,,#N/A,#N/A,#N/A,#N/A,,,
001ON000001UNMM,,36 Fennell St,Port Melbourne,VIC,3207,"36 Fennell St, Port Melbourne, VIC, 3207",-37.8286544,144.9383796
001ON0000023WNT,,12 Royan Place,Bayswater North,VIC,3153,"12 Royan Place, Bayswater North, VIC, 3153",-37.8166193,145.3028289
001ON000006HSSA,,#N/A,#N/A,#N/A,#N/A,,,
001ON000008VZZL,,#N/A,#N/A,#N/A,#N/A,,,
001ON00000ALYNY,,23-29 Factory Road,GRANVILLE,NSW,2142,"23-29 Factory Road, GRANVILLE, NSW, 2142",-33.8469243,151.0481503
001ON00000ARK3Y,,#N/A,#N/A,#N/A,#N/A,,,
001ON00000JFZVG,,"Suite 27, 541 Blackburn Road",Mount Waverley,VIC,3149,"Suite 27, 541 Blackburn Road, Mount Waverley, VIC, 3149",-37.8992191,145.1428777
001ON00000JFZW9,,6/2A Holmwood Road,Tottenham,VIC,3012,"6/2A Holmwood Road, Tottenham, VIC, 3012",-37.8120457,144.8583024
001ON00000JFAAD,,Unit 10/21-23 Capella Cres,Moorabbin,VIC,3189,"Unit 10/21-23 Capella Cres, Moorabbin, VIC, 3189",-37.9411369,145.0734798
001ON00000JFAE1,,23 Redland Drive,Mitcham,VIC,3132,"23 Redland Drive, Mitcham, VIC, 3132",-37.8300877,145.1921491
001ON00000JFAFP,,"2-6 Huntsmore Road,",Minto,NSW,2567,"2-6 Huntsmore Road, Minto, NSW, 2567",-34.0362799,150.8372196
001ON00000JFAMP,,10/26-30 Howleys Rd,Notting Hill,VIC,3168,"10/26-30 Howleys Rd, Notting Hill, VIC, 3168",-37.9031972,145.1396485
001ON00000JFAO5,,#N/A,#N/A,#N/A,#N/A,,,
001ON00000JFAOG,,"Suite 6, 133 Beaumont St",Hamilton,NSW,2303,"Suite 6, 133 Beaumont St, Hamilton, NSW, 2303",,
001ON00000JFAYR,,"Unit 11, 114-118 Merrindale Drive",Croydon South,VIC,3136,"Unit 11, 114-118 Merrindale Drive, Croydon South, VIC, 3136",-37.7739146,145.2741273
001ON00000JFAZW,,Unit 2 / 27 Binney Road,Kings Park,NSW,2148,"Unit 2 / 27 Binney Road, Kings Park, NSW, 2148",-33.8737266,151.033724
001ON00000JFAAI,,"Atlantic Drive,",Keysborough,VIC,3173,"Atlantic Drive, Keysborough, VIC, 3173",-38.0158791,145.1848587
001ON00000JFAFT,,7 Apoinga Street,Dandenong South,VIC,3175,"7 Apoinga Street, Dandenong South, VIC, 3175",-38.0356331,145.205506
001ON00000OCSIO,,20-24 Licola Crescent,Dandenong South,VIC,3175,"20-24 Licola Crescent, Dandenong South, VIC, 3175",-38.0343835,145.1917954
001ON00000OCSIW,,3 Clearwater Vista Narre,Warren North,VIC,3804,"3 Clearwater Vista Narre, Warren North, VIC, 3804",-37.9821918,145.3226657
001ON00000OCSJH,,10 Watervale Drive,Green Fields,SA,5107,"10 Watervale Drive, Green Fields, SA, 5107",-34.7965066,138.6052323
001ON00000OCSJP,,21-23 Aristoc Road,GLEN WAVERLEY,VIC,3150,"21-23 Aristoc Road, GLEN WAVERLEY, VIC, 3150",-37.8861463,145.1580119
0019S000005FJSB,,22 Hargreaves St,Huntingdale,VIC,3166,"22 Hargreaves St, Huntingdale, VIC, 3166",-37.9089293,145.1056432
0019S000005J1AW,,6-10 Souffi Place,DANDENONG SOUTH,VIC,3175,"6-10 Souffi Place, DANDENONG SOUTH, VIC, 3175",-38.0315538,145.1958594
0019S000007SM2D,,118 Burwood Hwy,Burwood,VIC,3125,"118 Burwood Hwy, Burwood, VIC, 3125",-37.8508363,145.1014698
001ON000001CKA1,,#N/A,#N/A,#N/A,#N/A,,,
001ON00000G0JC5,,1 Complex Close,Pahenham,VIC,3803,"1 Complex Close, Pahenham, VIC, 3803",-38.0959482,145.4959027
001ON00000JFSRX,,"Unit level 11, 263 Adelaide Terrace",Perth,WA,6000,"Unit level 11, 263 Adelaide Terrace, Perth, WA, 6000",,
001ON00000JFSRJ,,66 Wedgewood Road,Hallam,VIC,3803,"66 Wedgewood Road, Hallam, VIC, 3803",-38.0132325,145.2550213
001ON00000JFZKR,,"15-17 Bearing Avenue,",Warana,QLD,4575,"15-17 Bearing Avenue, Warana, QLD, 4575",-26.7293061,153.1270047
001ON00000JFZWA,,38-40 Wingfield Road,Wingfield,SA,5013,"38-40 Wingfield Road, Wingfield, SA, 5013",-34.8468231,138.5509931
001ON00000JFA2D,,95 Cowper Street,Glebe,NSW,2037,"95 Cowper Street, Glebe, NSW, 2037",-33.881512,151.1924243
001ON00000JFA9U,,Unit 3 41-43 Allied Dr,Tullamarine,VIC,3043,"Unit 3 41-43 Allied Dr, Tullamarine, VIC, 3043",-37.6937241,144.8794935
001ON00000JFAS7,,88 Sutton St,NORTH MELBOURNE,VIC,3051,"88 Sutton St, NORTH MELBOURNE, VIC, 3051",-37.7923612,144.9408252
001ON00000JFASZ,,5 HALBERT ROAD,Bayswater North,VIC,3153,"5 HALBERT ROAD, Bayswater North, VIC, 3153",-37.8205111,145.2918631
001ON00000JFAYC,,21 Ghan Road,ALICE SPRINGS,NT,870,"21 Ghan Road, ALICE SPRINGS, NT, 870",-23.6943759,133.8741408
001ON00000JFAA3,,"157 Sir Donald Bradman Drive,",Hilton,SA,5033,"157 Sir Donald Bradman Drive, Hilton, SA, 5033",-34.9321276,138.5635536
001ON00000JFAB2,,236 Brandon Park Drive,Wheelers Hill,VIC,3150,"236 Brandon Park Drive, Wheelers Hill, VIC, 3150",-37.9168162,145.1797056
001ON00000OCSJL,,80 Turner Street,PORT MELBOURNE,VIC,3207,"80 Turner Street, PORT MELBOURNE, VIC, 3207",-37.8245262,144.9253671
0015K000004K2QE,,"27-29 Federal Street,",North Hobart,TAS,7000,"27-29 Federal Street, North Hobart, TAS, 7000",-42.8714009,147.3154457
0015M000003LSDA,,Glenbarry Rd,Campbellfield,Victoria,3061,"Glenbarry Rd, Campbellfield, Victoria, 3061",-37.6635102,144.9596095
0017F00001UEIUK,,150-158 Link Road,Melbourne Airport,VIC,3045,"150-158 Link Road, Melbourne Airport, VIC, 3045",-37.6936712,144.8460268
0017F00001UEIV9,,"Level 4, 68 Waterloo Road",Macquarie Park,NSW,2113,"Level 4, 68 Waterloo Road, Macquarie Park, NSW, 2113",-33.781232,151.121954
0017F00001UEJJS,,10 Terra Nova Drive,WYNYARD,TAS,7325,"10 Terra Nova Drive, WYNYARD, TAS, 7325",-41.0006907,145.7453534
0019S000005W6GE,,#N/A,#N/A,#N/A,#N/A,,,
0019S000005WERR,,57 Greenhills Road,Pakenham,VIC,3810,"57 Greenhills Road, Pakenham, VIC, 3810",-38.1007477,145.475142
0019S000006Z7BK,,45 Chambers Rd,Altona North,VIC,3025,"45 Chambers Rd, Altona North, VIC, 3025",-37.8383649,144.8418206
001ON000002MK9W,,9 Chicago Avenue,BLACKTOWN,NSW,2148,"9 Chicago Avenue, BLACKTOWN, NSW, 2148",-33.7598838,150.9090178
001ON000003HG0J,,26 Turnbull Road,NEERABUP,WA,6031,"26 Turnbull Road, NEERABUP, WA, 6031",-31.6835886,115.786154
001ON000006LTHT,,24 Johnston Court,Dandenong South,VIC,3175,"24 Johnston Court, Dandenong South, VIC, 3175",-38.006009,145.2210109
001ON000007CDNI,,#N/A,#N/A,#N/A,#N/A,,,
001ON000008GKBF,,#N/A,#N/A,#N/A,#N/A,,,
001ON000009XZ7X,,153 Northbourne Road,Campbellfield,VIC,3061,"153 Northbourne Road, Campbellfield, VIC, 3061",-37.6498346,144.9654388
001ON00000BUS7C,,33-35 Eastern Road,Traralgon,VIC,3844,"33-35 Eastern Road, Traralgon, VIC, 3844",-38.1857143,146.5629666
001ON00000JFSQW,,"133 Alexander Street,",Crows Nest,NSW,2065,"133 Alexander Street, Crows Nest, NSW, 2065",-33.8242081,151.2029719
001ON00000JFSR5,,119 Kelvin Road,MADDINGTON,WA,6109,"119 Kelvin Road, MADDINGTON, WA, 6109",-32.0446451,115.9901962
001ON00000JFZQ8,,120 Wisemans Ferry Road,SOMERSBY,NSW,2250,"120 Wisemans Ferry Road, SOMERSBY, NSW, 2250",-33.3874882,151.2894606
001ON00000JFZX2,,61-67 Taras Avenue,Altona North,VIC,3025,"61-67 Taras Avenue, Altona North, VIC, 3025",-37.8445981,144.8249253
001ON00000JFA91,,24 Harcourt Road,Altona,VIC,3018,"24 Harcourt Road, Altona, VIC, 3018",-37.8510063,144.7878922
001ON00000JFAE0,,50 Gheringhap St,Geelong,VIC,3220,"50 Gheringhap St, Geelong, VIC, 3220",-38.1479439,144.357315
001ON00000JFAVB,,88 Oakes Road,Griffith,NSW,2680,"88 Oakes Road, Griffith, NSW, 2680",-34.2979809,146.0520415
001ON00000JFAAS,,117 Inspiration Drive,Wangara,WA,6065,"117 Inspiration Drive, Wangara, WA, 6065",-31.799535,115.8344778
001ON00000JFAEW,,"10 Access Avenue,",Yatala,QLD,4207,"10 Access Avenue, Yatala, QLD, 4207",-27.7374804,153.2247866
001ON00000OCSJG,,2 Arctic Court,KEYSBOROUGH,VIC,3173,"2 Arctic Court, KEYSBOROUGH, VIC, 3173",-38.0163041,145.184602
001ON00000OCSK1,,183 Jackson Road,BRISBANE,QLD,4109,"183 Jackson Road, BRISBANE, QLD, 4109",-27.5890424,153.0446361
001ON00000OCSK2,,95 HAYWARD AVENUE,TORRENSVILLE,SA,5031,"95 HAYWARD AVENUE, TORRENSVILLE, SA, 5031",-34.9214076,138.5573488
001ON00000JFA1K,,10 Oxford Road,Laverton North,VIC,3026,"10 Oxford Road, Laverton North, VIC, 3026",-37.8179614,144.79454
001ON00000JFAFL,,"645-651 German Church Road,",Redland Bay,QLD,4165,"645-651 German Church Road, Redland Bay, QLD, 4165",-27.6296457,153.2697977
001ON00000OCSJX,,10 Williams Circuit,Pooraka,SA,5095,"10 Williams Circuit, Pooraka, SA, 5095",-34.8272352,138.6067718
001ON00000OCSJI,,1-7 REDWOOD DRIVE,DINGLEY,VIC,3172,"1-7 REDWOOD DRIVE, DINGLEY, VIC, 3172",-37.9837202,145.1114522
001ON00000OCSK5,,11 Coliban Gardens,Caroline Springs,VIC,3023,"11 Coliban Gardens, Caroline Springs, VIC, 3023",-37.7460857,144.7347832
001ON00000OCSK8,,33/45 Powers Road,SEVEN HILLS,NSW,2147,"33/45 Powers Road, SEVEN HILLS, NSW, 2147",-33.7742703,150.9420199
0017F00001UEJPL,,170 Colchester Road,Bayswater,VIC,3153,"170 Colchester Road, Bayswater, VIC, 3153",-37.8173073,145.3047438
001ON00000JFSRN,,"51 Ellemsea Circuit,",Lonsdale,SA,5160,"51 Ellemsea Circuit, Lonsdale, SA, 5160",-35.1055946,138.4981548
001ON00000JFZPI,,6 Monaco Pde,Dromana,VIC,3936,"6 Monaco Pde, Dromana, VIC, 3936",-38.3365048,144.9810102
001ON00000JFA8Q,,"4 Jeanes St,",Beverley,SA,5009,"4 Jeanes St, Beverley, SA, 5009",-34.8926101,138.5490793
001ON00000JFAES,,"120 Sussex Street,",Sydney,NSW,2000,"120 Sussex Street, Sydney, NSW, 2000",-33.8682788,151.2038114
001ON00000OCSIQ,,4/12-13 Nefertiti Ct,Traralgon,VIC,3844,"4/12-13 Nefertiti Ct, Traralgon, VIC, 3844",-38.188166,146.560654
001ON00000OCSJC,,100 Atlantic Drive,Keysborough,VIC,3173,"100 Atlantic Drive, Keysborough, VIC, 3173",-38.0185178,145.1853267
0019S000003BOLS,,176 Colchester Road,Bayswater,VIC,3153,"176 Colchester Road, Bayswater, VIC, 3153",-37.8178988,145.3047552
001ON000001TRIE,,75 Northgate Dr,Thomastown,VIC,3074,"75 Northgate Dr, Thomastown, VIC, 3074",-37.6887769,145.0343122
001ON000002ZR4T,,3/843 Mountina Highway,Bayswater,VIC,3153,"3/843 Mountina Highway, Bayswater, VIC, 3153",-37.8376571,145.2772869
001ON000007VEOS,,2 Ashford Avenue,MILPERRA,NSW,2214,"2 Ashford Avenue, MILPERRA, NSW, 2214",-33.9343835,150.9899318
001ON00000JFZJE,,2b 203 Mona Vale Road,Terrey Hills,NSW,2084,"2b 203 Mona Vale Road, Terrey Hills, NSW, 2084",,
001ON00000JFAGH,,"16 Egan Road,",Dandenong,VIC,3175,"16 Egan Road, Dandenong, VIC, 3175",-37.9944845,145.1941749
001ON00000OCSK6,,10 Angel Road,Stapylton,QLD,4207,"10 Angel Road, Stapylton, QLD, 4207",-27.7307284,153.2394603
0017F00001UEIZH,,"4/ 99 King Street,",Melbourne,VIC,3000,"4/ 99 King Street, Melbourne, VIC, 3000",-37.8139348,144.95451
0019S000005WDRM,,12 Dalmore Drive,Scoresby,VIC,3179,"12 Dalmore Drive, Scoresby, VIC, 3179",-37.9060216,145.2169032
001ON0000017IAY,,99-109 Frederick Street,WELLAND,SA,5007,"99-109 Frederick Street, WELLAND, SA, 5007",-34.9009523,138.5575046
0012T00000364AW,,2a Evolution Dr,Dandenong South,VIC,3175,"2a Evolution Dr, Dandenong South, VIC, 3175",-38.045705,145.218714
0015K000004B731,,25 Oherns Road,Somerton,VIC,3062,"25 Oherns Road, Somerton, VIC, 3062",-37.6297255,144.9525532
0015M000003RZTQ,,62-64 Bond Street West,Mordialloc,VIC,3195,"62-64 Bond Street West, Mordialloc, VIC, 3195",-37.9918612,145.0989786
0019S000003IJW8,,127 Dandenong Rd,Dandenong South,VIC,3175,"127 Dandenong Rd, Dandenong South, VIC, 3175",-38.0122538,145.2161768
0019S000004OTJO,,#N/A,#N/A,#N/A,#N/A,,,
0019S000005UHG0,,#N/A,#N/A,#N/A,#N/A,,,
001ON000001QZ1Y,,#N/A,#N/A,#N/A,#N/A,,,
001ON000002AL0X,,2/2-12 Morgan St,Bell Park,VIC,3215,"2/2-12 Morgan St, Bell Park, VIC, 3215",-38.0996501,144.3440893
001ON000004LWT2,,16 Power Road,Doveton,VIC,3177,"16 Power Road, Doveton, VIC, 3177",-37.9987602,145.2356555
001ON000005RAJD,,17 Lakewood Bvd,CARRUM DOWNS,VIC,3201,"17 Lakewood Bvd, CARRUM DOWNS, VIC, 3201",-38.0958791,145.1574174
001ON00000ALLXC,,15 Enterprise Way,BAYSWATER,VIC,3153,"15 Enterprise Way, BAYSWATER, VIC, 3153",-37.8258971,145.2787087
001ON00000BEYLH,,5 Sutton Street,South Kingsville,VIC,3015,"5 Sutton Street, South Kingsville, VIC, 3015",-37.8329296,144.8766601
001ON00000CKWE7,,44 Levanswell Road,Moorabbin,VIC,3189,"44 Levanswell Road, Moorabbin, VIC, 3189",-37.9452011,145.0680696
001ON00000DSMUR,,#N/A,#N/A,#N/A,#N/A,,,
001ON00000HOGCO,,#N/A,#N/A,#N/A,#N/A,,,
001ON00000JFSRM,,3/11 Cooper St Campbellfield VIC 3061,Campbellfield,VIC,3061,"3/11 Cooper St Campbellfield VIC 3061, Campbellfield, VIC, 3061",-37.6468843,144.9721805
001ON00000JFSRK,,"19 Rocklea Drive,",Port Melbourne,VIC,3207,"19 Rocklea Drive, Port Melbourne, VIC, 3207",-37.8297123,144.9209266
001ON00000JFZXN,,"Unit 8, 7-13 Ponting Street",Williamstown,VIC,3016,"Unit 8, 7-13 Ponting Street, Williamstown, VIC, 3016",-37.8553159,144.8563673
001ON00000JFZXR,,16 Mary Ave,Highett,VIC,3190,"16 Mary Ave, Highett, VIC, 3190",-37.9550242,145.0372653
001ON00000JFANH,,9/170 Boundary Road,Braeside,VIC,3195,"9/170 Boundary Road, Braeside, VIC, 3195",-37.9969927,145.1060583
001ON00000JFAKE,,116 Whitehall Street,Footscray,VIC,3011,"116 Whitehall Street, Footscray, VIC, 3011",-37.8073246,144.9029704
001ON00000OCSDB,,47-53 Barnes Street,Taminda,NSW,2340,"47-53 Barnes Street, Taminda, NSW, 2340",-31.088482,150.9183335
001ON00000OCSJV,,23 Northgate Drive,Thomastown,VIC,3074,"23 Northgate Drive, Thomastown, VIC, 3074",-37.6925102,145.0392733
001ON00000OCSJZ,,13 Teschner Road,Woolmer,QLD,4352,"13 Teschner Road, Woolmer, QLD, 4352",-27.4552822,151.9102508
001ON00000OCSK0,,1/19 Awaba St,LISAROW,NSW,2250,"1/19 Awaba St, LISAROW, NSW, 2250",-33.3805057,151.3691307
001ON00000OCSK3,,54 Tarnard Drive,Braeside,VIC,3195,"54 Tarnard Drive, Braeside, VIC, 3195",-37.9898754,145.115203
001ON00000OCSK4,,4 AMCOR WAY,Campbellfield,VIC,3061,"4 AMCOR WAY, Campbellfield, VIC, 3061",-37.6575538,144.9592347
0015K000004YYEC,,#N/A,#N/A,#N/A,#N/A,,,
001ON00000JFA8A,,Factor 7  54 Howleys Road,Notting Hill,VIC,3168,"Factor 7  54 Howleys Road, Notting Hill, VIC, 3168",-37.9049758,145.1393713
001ON00000JFAOA,,Unit 2 109 Tulip St,Cheltenham,VIC,3192,"Unit 2 109 Tulip St, Cheltenham, VIC, 3192",-37.9641867,145.0367465
001ON00000JFZJQ,,14 Healey Circuit,Huntingwood,NSW,2148,"14 Healey Circuit, Huntingwood, NSW, 2148",-33.8003586,150.8790548
001ON00000JFA9E,,10 Centre Road,Hallam,VIC,3803,"10 Centre Road, Hallam, VIC, 3803",-38.0200517,145.2736964
001ON00000OCSJK,,14 Dennis St,Campbellfield,VIC,3061,"14 Dennis St, Campbellfield, VIC, 3061",-37.6465524,144.9411419
001ON00000CHH2B,,8 TOUPEIN ROAD,PALMERSTON,NT,830,"8 TOUPEIN ROAD, PALMERSTON, NT, 830",-12.4721504,130.9892027
001ON000005UV43,,144 Colchester RD,Bayswater North,VIC,3153,"144 Colchester RD, Bayswater North, VIC, 3153",-37.8154182,145.3049622
0019S000006PCV5,,#N/A,#N/A,#N/A,#N/A,,,
001ON000002PYKH,,1/9 Eastspur Ct,Kilsyth South,VIC,3137,"1/9 Eastspur Ct, Kilsyth South, VIC, 3137",-37.8217809,145.3138914
001ON00000JFSRY,,9A Pembury Road,Minto,NSW,2566,"9A Pembury Road, Minto, NSW, 2566",-34.0351808,150.8331939
001ON00000JFA9C,,3/49 Miller Street,Murarrie,QLD,4172,"3/49 Miller Street, Murarrie, QLD, 4172",-27.4589189,153.0991771
001ON00000JFA9J,,"82 Sparks Road,",Henderson,WA,6166,"82 Sparks Road, Henderson, WA, 6166",-32.1526934,115.7752531
001ON00000JFAOY,,Unit 1/383 Dorset Road,Bayswater,VIC,3153,"Unit 1/383 Dorset Road, Bayswater, VIC, 3153",,
001ON000003U4AJ,,339 Williamstown Road,Port Melbourne,VIC,3207,"339 Williamstown Road, Port Melbourne, VIC, 3207",-37.8332859,144.9258894
001ON00000JFSQG,,26 Crampton Chase,Sandhurst,VIC,3977,"26 Crampton Chase, Sandhurst, VIC, 3977",-38.0847105,145.2109685
001ON00000JFA4F,,Suite 417 / 30-40 Harcourt Parade,Rosebery,NSW,2018,"Suite 417 / 30-40 Harcourt Parade, Rosebery, NSW, 2018",,
001ON00000JFAUA,,"20 Miller Street,",Northgate,QLD,4172,"20 Miller Street, Northgate, QLD, 4172",-27.4587663,153.0987308
001ON00000JFSRG,,"2 Rockleigh Court,",Glenella,QLD,4740,"2 Rockleigh Court, Glenella, QLD, 4740",-21.1294324,149.1488559
001ON00000JFAA1,,44 Graeme Street,Dromana,VIC,3936,"44 Graeme Street, Dromana, VIC, 3936",-38.3351305,144.974813
0017F00001UEINU,,#N/A,#N/A,#N/A,#N/A,,,
0019S000005J0S4,,64 Geddes Street,MULGRAVE,VIC,3170,"64 Geddes Street, MULGRAVE, VIC, 3170",-37.909153,145.1526321
001ON00000CY8U3,,#N/A,#N/A,#N/A,#N/A,,,
001ON00000JFZVN,,66 Wedgewood Rd,Hallam,VIC,3803,"66 Wedgewood Rd, Hallam, VIC, 3803",-38.0132325,145.2550213
001ON00000JFANP,,"Unit 56, 327 Mansfield St",Thornbury,VIC,3071,"Unit 56, 327 Mansfield St, Thornbury, VIC, 3071",-37.7588468,145.0269829
001ON00000JFAEX,,"11 Martin Drive,",Tomago,NSW,2322,"11 Martin Drive, Tomago, NSW, 2322",-32.8195696,151.7028795
001ON000000YZN3,,82 Northern Road,Heidelberg West,VIC,3081,"82 Northern Road, Heidelberg West, VIC, 3081",-37.7298714,145.0512577
0015K000004YVJY,,529 Hume Street,Albury,NSW,2640,"529 Hume Street, Albury, NSW, 2640",-36.0852837,146.9154707
0015K000004YYDM,,#N/A,#N/A,#N/A,#N/A,,,
0015K000004CGLX,,2/91 Tulip Street,Cheltenham,VIC,3192,"2/91 Tulip Street, Cheltenham, VIC, 3192",-37.9641867,145.0367465
0019S000002QWJE,,Macquarie Drive,Thomastown,VIC,3074,"Macquarie Drive, Thomastown, VIC, 3074",-37.6913511,145.0313364
0019S000005CIOI,,62-66 Governor Macquarie Drive,CHIPPING NORTON,NSW,2170,"62-66 Governor Macquarie Drive, CHIPPING NORTON, NSW, 2170",-33.9260249,150.9621575
001ON000002DQFP,,#N/A,#N/A,#N/A,#N/A,,,
001ON000002JWP1,,#N/A,#N/A,#N/A,#N/A,,,
001ON00000IR8T8,,#N/A,#N/A,#N/A,#N/A,,,
001ON00000JFZXD,,"1 Short St,",Auburn,NSW,2144,"1 Short St, Auburn, NSW, 2144",-33.8374677,151.0290121
001ON00000JFA7R,,630 Waterdale Rd,Heidelberg West,VIC,3081,"630 Waterdale Rd, Heidelberg West, VIC, 3081",-37.7310904,145.0499107
001ON00000JFA8F,,25 Emperor Pde,Tarneit,VIC,3029,"25 Emperor Pde, Tarneit, VIC, 3029",-37.8483618,144.667125
001ON00000JFAGX,,21/22 Disney Avenue,Keilor East,VIC,3033,"21/22 Disney Avenue, Keilor East, VIC, 3033",-37.7330917,144.8569871
001ON00000OCSID,,13 MARTIN STREET,BOX HILL NORTH,VIC,3129,"13 MARTIN STREET, BOX HILL NORTH, VIC, 3129",-37.8013289,145.1357068
001ON00000OCSJ0,,1/14 Southeast Boulevard,Pakenham,VIC,3810,"1/14 Southeast Boulevard, Pakenham, VIC, 3810",-38.0979729,145.4879785
001ON00000OCSJ2,,0,Mornington,VIC,3931,"0, Mornington, VIC, 3931",-38.2202151,145.0411089
001ON00000OCSJ5,,73 Winbourne Road,Brookvale,NSW,2100,"73 Winbourne Road, Brookvale, NSW, 2100",-33.7621638,151.2734807
0015K000004HAUO,,"Level 20, 321 Kent Street",Sydney,NSW,2000,"Level 20, 321 Kent Street, Sydney, NSW, 2000",-33.8677269,151.2041396
0017F00001UEISB,,2 Blue Street,North Sydney,NSW,2060,"2 Blue Street, North Sydney, NSW, 2060",-33.8410137,151.2078933
0017F00001UEJDA,,L10 383 Kent Street,SYDNEY,NSW,2000,"L10 383 Kent Street, SYDNEY, NSW, 2000",,
0017F00001UEJRY,,"Level 1, 101 Flinders Street",Adelaide,SA,5000,"Level 1, 101 Flinders Street, Adelaide, SA, 5000",-34.9243656,138.6036098
0019S000002PNX5,,"Unit 52, 2 Nagle Street",EAST WAGGA WAGGA,NSW,2650,"Unit 52, 2 Nagle Street, EAST WAGGA WAGGA, NSW, 2650",,
0019S000004U54R,,175 Murphy Street,BENDIGO,VIC,3554,"175 Murphy Street, BENDIGO, VIC, 3554",-36.7451991,144.3039832
0019S000004X5MD,,135 Coronation Drive,MILTON,QLD,4064,"135 Coronation Drive, MILTON, QLD, 4064",-27.4682983,153.0102666
0019S000005FW6W,,357 Ferntree Gully Road,MOUNT WAVERLEY,VIC,3149,"357 Ferntree Gully Road, MOUNT WAVERLEY, VIC, 3149",-37.9000486,145.1365357
0019S0000065J6O,,891 Ingham Road,Bohle,QLD,4818,"891 Ingham Road, Bohle, QLD, 4818",-19.2607039,146.7210497
001ON0000017N2B,,1 Millennium Court,KNOXFIELD,VIC,3180,"1 Millennium Court, KNOXFIELD, VIC, 3180",-37.899339,145.2401627
001ON000002JUUW,,10 Kent Road,MASCOT,NSW,2020,"10 Kent Road, MASCOT, NSW, 2020",-33.9242396,151.1838039
001ON000003F4QQ,,4 Dellamarta Road,Wangara,WA,6065,"4 Dellamarta Road, Wangara, WA, 6065",-31.7889099,115.8212037
001ON000003FHNL,,18 Vallance Street,Saint Marys,NSW,2760,"18 Vallance Street, Saint Marys, NSW, 2760",-33.7645961,150.7786444
001ON000009MUEB,,10 Brennan Close,ASQUITH,NSW,2077,"10 Brennan Close, ASQUITH, NSW, 2077",-33.6964666,151.1097459
001ON00000AN8MT,,Level 6 380 Docklands Drive,Docklands,VIC,3008,"Level 6 380 Docklands Drive, Docklands, VIC, 3008",,
001ON00000JFZKD,,"Level 8, 178 Saint Georges Terrace,",Perth,WA,6000,"Level 8, 178 Saint Georges Terrace, Perth, WA, 6000",,
001ON00000JFZWQ,,Unit 7/27 Annie St,WICKHAM,NSW,2293,"Unit 7/27 Annie St, WICKHAM, NSW, 2293",,
001ON00000JFA3D,,"Unit 1, 251 Ferntree Gully Road",MOUNT WAVERLEY,VIC,3149,"Unit 1, 251 Ferntree Gully Road, MOUNT WAVERLEY, VIC, 3149",-37.8976417,145.1266652
001ON00000JFA3N,,3 Concorde Drive,KEILOR PARK,VIC,3042,"3 Concorde Drive, KEILOR PARK, VIC, 3042",-37.7222716,144.8480466
001ON00000OCSBM,,35-45 Frankston-Dandenong Road,DANDENONG,VIC,3175,"35-45 Frankston-Dandenong Road, DANDENONG, VIC, 3175",-38.0029215,145.2179134
001ON00000OCSBN,,Lot 10 Calabro Way,BURLEIGH HEADS,QLD,4220,"Lot 10 Calabro Way, BURLEIGH HEADS, QLD, 4220",-28.1029675,153.4160557
001ON00000OCSBZ,,Suite 8 / 50 Upper Heidelberg Rd,IVANHOE,VIC,3079,"Suite 8 / 50 Upper Heidelberg Rd, IVANHOE, VIC, 3079",-37.7709272,145.0410529
001ON00000OCSC1,,"Level 9, 180 Flinders Street",MELBOURNE,VIC,3000,"Level 9, 180 Flinders Street, MELBOURNE, VIC, 3000",,
001ON00000OCSC2,,320 Churchill Road,KILBURN,SA,5084,"320 Churchill Road, KILBURN, SA, 5084",-34.8599541,138.5830547
001ON00000OCSCU,,10 Farrin Street,Attadalem,WA,6165,"10 Farrin Street, Attadalem, WA, 6165",-32.0268222,115.8047287
001ON00000OCSCB,,"Unit 4, 21 Pikkat Drive",BRAEMAR,NSW,2575,"Unit 4, 21 Pikkat Drive, BRAEMAR, NSW, 2575",,
001ON00000OCSCR,,1/16 Oxleigh Drive,MALAGA,WA,6090,"1/16 Oxleigh Drive, MALAGA, WA, 6090",-31.8463772,115.8856884
001ON00000OCSEA,,"Factory 2, 21-29 Railway Avenue",HUNTINGDALE,VIC,3166,"Factory 2, 21-29 Railway Avenue, HUNTINGDALE, VIC, 3166",-37.9098178,145.1023047
001ON00000OCSEB,,"Unit 28, 7-9 Production Road",TAREN POINT,NSW,2229,"Unit 28, 7-9 Production Road, TAREN POINT, NSW, 2229",,
001ON00000OCSEH,,PO Box 1079,Paradise Point,WQLD,4216,"PO Box 1079, Paradise Point, WQLD, 4216",,
001ON00000OCSER,,Suite G2/25 Ryde Road,Pymble,NSW,2073,"Suite G2/25 Ryde Road, Pymble, NSW, 2073",,
001ON00000OCSEZ,,"UNIT 2, 194 MILITARY RD",GUILDFORD,NSW,2161,"UNIT 2, 194 MILITARY RD, GUILDFORD, NSW, 2161",,
001ON00000OCSEC,,"Suite 4, Level 4, 6 Eden Park Drive",MACQUARIE PARK,NSW,2113,"Suite 4, Level 4, 6 Eden Park Drive, MACQUARIE PARK, NSW, 2113",-33.785215550000004,151.13148182126622
0015K0000048MFP,,13-15 Brough Street,Springvale,VIC,3171,"13-15 Brough Street, Springvale, VIC, 3171",-37.9428861,145.1703065
0015K000004MVUH,,"33-35 Yazaki Way,",Carrum Downs,VIC,3201,"33-35 Yazaki Way, Carrum Downs, VIC, 3201",-38.0948243,145.1748708
0019S000003MPQR,,13 Hume Road,Smithfield,NSW,2164,"13 Hume Road, Smithfield, NSW, 2164",-33.8364037,150.9307757
001ON000003UEXZ,,#N/A,#N/A,#N/A,#N/A,,,
001ON000009VX7R,,23 brodie road north,lonsdale,SA,5160,"23 brodie road north, lonsdale, SA, 5160",,
001ON00000BVFFC,,44 Jellico Drive,SCORESBY,VIC,3179,"44 Jellico Drive, SCORESBY, VIC, 3179",-37.8959881,145.2179207
001ON00000BYGVF,,#N/A,#N/A,#N/A,#N/A,,,
001ON00000BDTF8,,"96 Fairfield Street,",Fairfield,NSW,2165,"96 Fairfield Street, Fairfield, NSW, 2165",-33.8700873,150.9823403
001ON00000BEWYT,,#N/A,#N/A,#N/A,#N/A,,,
001ON00000GYBKR,,23 Waler Crescent,Smeaton Grange,NSW,2567,"23 Waler Crescent, Smeaton Grange, NSW, 2567",-34.033132,150.7629941
001ON00000JFSRR,,"Unit 9, 6 Leighton Place",HORNSBY,NSW,2077,"Unit 9, 6 Leighton Place, HORNSBY, NSW, 2077",-33.696327,151.111582
001ON00000JFZOW,,"33 Queen Street,",Brisbane,QLD,4000,"33 Queen Street, Brisbane, QLD, 4000",-27.471001,153.0239027
001ON00000JFZQW,,"11 Cliff Road,",Epping,NSW,2121,"11 Cliff Road, Epping, NSW, 2121",-33.7717983,151.0723717
001ON00000JFA21,,7 Epsom Drive,Tomago,NSW,2322,"7 Epsom Drive, Tomago, NSW, 2322",,
001ON00000JFAFS,,"Handley Drive,",Boyne Island,QLD,4680,"Handley Drive, Boyne Island, QLD, 4680",-23.9392344,151.3407288
001ON00000OCSBP,,#N/A,#N/A,#N/A,#N/A,,,
001ON00000OCSBS,,"Unit level 11, 458 Brunswick Street",Fortitude Valley,QLD,4006,"Unit level 11, 458 Brunswick Street, Fortitude Valley, QLD, 4006",,
001ON00000OCSC5,,"Suite 401, Level 4, 2-4 Lyonpark Road",Macquarie Park,NSW,2113,"Suite 401, Level 4, 2-4 Lyonpark Road, Macquarie Park, NSW, 2113",,
001ON00000OCSCG,,14 Capital Court,Braeside,VIC,3195,"14 Capital Court, Braeside, VIC, 3195",-37.9954114,145.1098756
001ON00000OCSD1,,2A Montrose Pl,HAWTHORN EAST,VIC,3123,"2A Montrose Pl, HAWTHORN EAST, VIC, 3123",-37.8227911,145.0458664
001ON00000OCSI9,,157 Walker Street,North Sydney,NSW,2060,"157 Walker Street, North Sydney, NSW, 2060",-33.8376384,151.2094062
0019S000004GYQL,,2 Caribbean Drive,SCORESBY,VIC,3179,"2 Caribbean Drive, SCORESBY, VIC, 3179",-37.9021647,145.2188716
0019S000005BPOG,,7 Technology Circuit,Hallam,VIC,3803,"7 Technology Circuit, Hallam, VIC, 3803",-38.0117126,145.2592758
0019S000005FWVQ,,20 Sangiorgio Park,Osborne Park,WA,6017,"20 Sangiorgio Park, Osborne Park, WA, 6017",-31.9033165,115.814291
0019S000005YMXA,,480 Queen Street,Brisbane City,QLD,4000,"480 Queen Street, Brisbane City, QLD, 4000",-27.4644999,153.0306988
0019S0000064AAL,,221 Hammond Road,Dandenong South,VIC,3175,"221 Hammond Road, Dandenong South, VIC, 3175",-38.0091589,145.2068898
001ON000001TAO0,,9 Carrington Road,Castle Hill,NSW,2154,"9 Carrington Road, Castle Hill, NSW, 2154",-33.7274064,150.9893915
001ON000007P9D8,,349b Wentworth Avenue,Pendle Hill,NSW,2145,"349b Wentworth Avenue, Pendle Hill, NSW, 2145",-33.8033404,150.9612832
001ON00000APXZ5,,24 Daisy St,Revesby,NSW,2212,"24 Daisy St, Revesby, NSW, 2212",-33.9364659,151.0088754
001ON00000AXDQC,,153 KEYS ROAD,Moorabbin,VIC,3189,"153 KEYS ROAD, Moorabbin, VIC, 3189",-37.949492,145.0757929
001ON00000BDTWR,,#N/A,#N/A,#N/A,#N/A,,,
001ON00000DTK6F,,37 Bond Street,RINGWOOD,VIC,3134,"37 Bond Street, RINGWOOD, VIC, 3134",-37.814394,145.2234684
001ON00000JFZKF,,"22 Industry Boulevard,",Carrum Downs,VIC,3201,"22 Industry Boulevard, Carrum Downs, VIC, 3201",-38.0923724,145.1707439
001ON00000JFZRH,,"170 Railway Parade,",Bassendean,WA,6054,"170 Railway Parade, Bassendean, WA, 6054",-31.9126212,115.9358199
001ON00000JFA3T,,"10/ 6-8 Herbert Street,",St Leonards,NSW,2065,"10/ 6-8 Herbert Street, St Leonards, NSW, 2065",-33.8061048,151.1592857
001ON00000JFA8B,,96 Bell Street,Preston,VIC,3072,"96 Bell Street, Preston, VIC, 3072",-37.7455348,145.0252621
001ON00000OCSBO,,50 Pitt Street,SYDNEY,NSW,2000,"50 Pitt Street, SYDNEY, NSW, 2000",-33.863332,151.2092568
001ON00000OCSBQ,,34 Mount Erin Road,Campbelltown,NSW,2560,"34 Mount Erin Road, Campbelltown, NSW, 2560",-34.0582566,150.8031453
001ON00000OCSC3,,420 Footscray Road,West Melbourne,VIC,3003,"420 Footscray Road, West Melbourne, VIC, 3003",-37.8071161,144.9132978
001ON00000OCSC7,,"Unit 9, 135 Finlay Road",Goulburn,NSW,2580,"Unit 9, 135 Finlay Road, Goulburn, NSW, 2580",,
001ON00000OCSC9,,"Unit 1, 13 Bessemer Street",Blacktown,NSW,2148,"Unit 1, 13 Bessemer Street, Blacktown, NSW, 2148",,
001ON00000OCSCA,,59 Albany Highway,Victoria Park,WA,6100,"59 Albany Highway, Victoria Park, WA, 6100",-31.9693072,115.8893304
001ON00000OCSCM,,Suite 8/50 Upper Heidelburg Road,IVANHOE,VIC,3079,"Suite 8/50 Upper Heidelburg Road, IVANHOE, VIC, 3079",-37.7709272,145.0410529
001ON00000OCSCN,,15 Felspar Street,Welshpool,WA,6106,"15 Felspar Street, Welshpool, WA, 6106",-32.0015762,115.96989
001ON00000OCSCT,,Beach Road,THAMES,NI,3500,"Beach Road, THAMES, NI, 3500",,
001ON00000OCSCV,,9 MELRICH ROAD,BAYSWATER,VIC,3153,"9 MELRICH ROAD, BAYSWATER, VIC, 3153",-37.8465535,145.2834527
001ON00000OCSCX,,269b Treasure Road North,Welshpool,WA,6106,"269b Treasure Road North, Welshpool, WA, 6106",-31.995084,115.9477121
001ON00000OCSCZ,,103 Newman Road,WAVELL HEIGHTS,QLD,4012,"103 Newman Road, WAVELL HEIGHTS, QLD, 4012",-27.3808029,153.045968
001ON00000OCSCH,,6 Whitmuir Road,BENTLEIGH,VIC,3204,"6 Whitmuir Road, BENTLEIGH, VIC, 3204",-37.9163539,145.0287589
001ON00000OCSD6,,179-187 Browns Road,Noble Park North,VIC,3174,"179-187 Browns Road, Noble Park North, VIC, 3174",-37.9504668,145.1855764
001ON00000OCSDA,,9 Dennis Court,Berrimah,NT,820,"9 Dennis Court, Berrimah, NT, 820",-12.4363616,130.9226894
001ON00000OCSDE,,2/18 Arundel Street,Cranbourne,VIC,3977,"2/18 Arundel Street, Cranbourne, VIC, 3977",-38.1035559,145.2843537
001ON00000OCSDG,,163 Rossmanns Road,STAPYLTON,QLD,4207,"163 Rossmanns Road, STAPYLTON, QLD, 4207",,
001ON00000OCSDJ,,"Unit 130b, 23 Milton Parade",MALVERN,VIC,3144,"Unit 130b, 23 Milton Parade, MALVERN, VIC, 3144",-37.84601385,145.03892849157486
001ON00000OCSEE,,32 Shearson Cresent,MENTONE,VIC,3194,"32 Shearson Cresent, MENTONE, VIC, 3194",-37.9783335,145.0842374
001ON00000OCSEP,,66 Kings Park Road,WEST PERTH,WA,6005,"66 Kings Park Road, WEST PERTH, WA, 6005",-31.9506514,115.8350739
001ON00000OCSEU,,103 Long Street,Smithfield,NSW,2164,"103 Long Street, Smithfield, NSW, 2164",-33.8392888,150.9281902
001ON00000OCSEV,,E1/3/29 Birnie Avenue,Lidcombe,NSW,2141,"E1/3/29 Birnie Avenue, Lidcombe, NSW, 2141",,
001ON00000OCSEW,,"Unit 6, 4 Skyline Place",Frenchs Forest,NSW,2085,"Unit 6, 4 Skyline Place, Frenchs Forest, NSW, 2085",,
001ON00000OCSEX,,51-55 Centre Way,Croydon South,VIC,3136,"51-55 Centre Way, Croydon South, VIC, 3136",-37.8156454,145.2926936
001ON00000OCSI7,,124 Long Street,Smithfield,NSW,2164,"124 Long Street, Smithfield, NSW, 2164",-33.8392888,150.9281902
001ON00000OCSI8,,36 Huntington Place,Banyo,QLD,4014,"36 Huntington Place, Banyo, QLD, 4014",-27.3849175,153.0949643
001ON00000OCSCJ,,6 Conos Court,Donvale,VIC,3111,"6 Conos Court, Donvale, VIC, 3111",-37.7873825,145.1959781
001ON00000OCSES,,U4/3 Hopetoun Place,Welshpool,WA,6106,"U4/3 Hopetoun Place, Welshpool, WA, 6106",,
001ON00000OCSET,,Unit 12/51 Nelson Rd,YENNORA,NSW,2161,"Unit 12/51 Nelson Rd, YENNORA, NSW, 2161",,
001ON000000JGY4,,#N/A,#N/A,#N/A,#N/A,,,
001ON000000LI7I,,#N/A,#N/A,#N/A,#N/A,,,
001ON000002GJCI,,#N/A,#N/A,#N/A,#N/A,,,
001ON0000060PZS,,147-149 Magowar Road,GIRRAWEEN,NSW,2145,"147-149 Magowar Road, GIRRAWEEN, NSW, 2145",-33.8007111,150.9417885
001ON00000BDRLQ,,#N/A,#N/A,#N/A,#N/A,,,
001ON00000DQ2EG,,16 Jersey Road,Bayswater,VIC,3153,"16 Jersey Road, Bayswater, VIC, 3153",-37.8401418,145.2796015
001ON00000JFSRO,,"39 Collingwood St,",Osborne Park,WA,6017,"39 Collingwood St, Osborne Park, WA, 6017",-31.9042854,115.8168292
001ON00000OCSC0,,44-80 Sinclair Rd,DANDENONG,VIC,3175,"44-80 Sinclair Rd, DANDENONG, VIC, 3175",-37.9880555,145.1967503
001ON00000OCSDZ,,14 Moloney Drive,Wodonga,VIC,3690,"14 Moloney Drive, Wodonga, VIC, 3690",-36.1032366,146.8659045
001ON00000OCSDC,,140-146 Barry Road,CAMPBELLFIELD,VIC,3061,"140-146 Barry Road, CAMPBELLFIELD, VIC, 3061",-37.6676043,144.9627953
001ON00000OCSEL,,14/16 Bernera Road,Prestons,NSW,2170,"14/16 Bernera Road, Prestons, NSW, 2170",-33.9397823,150.8678635
001ON00000OCSEN,,"Unit 1, 6 South Road",BRAYBROOK,VIC,3019,"Unit 1, 6 South Road, BRAYBROOK, VIC, 3019",40.8069025,-72.6432005
001ON00000OCSEO,,46 Merrindale Drive,CROYDON,VIC,3136,"46 Merrindale Drive, CROYDON, VIC, 3136",-37.8136698,145.2898653
001ON000001VJWO,,#N/A,#N/A,#N/A,#N/A,,,
001ON000002GLWM,,"Unit 6, 39 Herbert Street",ST LEONARDS,NSW,2065,"Unit 6, 39 Herbert Street, ST LEONARDS, NSW, 2065",46.1262785,-60.196056
001ON000003UGD1,,#N/A,#N/A,#N/A,#N/A,,,
001ON000009VAK4,,1/16 Fitzgerald Road,Laverton,VIC,3028,"1/16 Fitzgerald Road, Laverton, VIC, 3028",-37.845403,144.7815688
001ON00000JFZKH,,"Unit 2, 8 STENNETT ROAD",INGLEBURN,NSW,2565,"Unit 2, 8 STENNETT ROAD, INGLEBURN, NSW, 2565",,
001ON00000OCSCK,,136-140 South Park Drive,DANDENONG SOUTH,VIC,3175,"136-140 South Park Drive, DANDENONG SOUTH, VIC, 3175",-38.0164185,145.194337
001ON00000OCSEI,,5 Fulwood Place,MULGRAVE,VIC,3170,"5 Fulwood Place, MULGRAVE, VIC, 3170",-37.9297368,145.1826055
001ON00000OCSEJ,,Unit 13/82 Reserve Road,Artarmon,NSW,2064,"Unit 13/82 Reserve Road, Artarmon, NSW, 2064",,
001ON00000OCSEK,,119 Kewdale Road,Kewdale,WA,6105,"119 Kewdale Road, Kewdale, WA, 6105",-31.9852,115.9531291
